{
  "file_info": {
    "description": "All detected conflicts from simulation",
    "last_updated": "2026-01-30T13:43:22.176010",
    "total_conflicts": 51,
    "unresolved_count": 51,
    "resolved_count": 0
  },
  "conflicts": [
    {
      "metadata": {
        "conflict_id": "1193c707-4b95-451a-a068-b7e4f889ce58",
        "timestamp": "2026-01-29T22:42:37.386753",
        "tick_number": 20,
        "simulation_time": "2026-01-29T06:20:00.886848"
      },
      "conflict": {
        "type": "edge_capacity_overflow",
        "severity": "medium",
        "probability": 1.0,
        "location": "VOGHERA--PAVIA",
        "location_type": "edge",
        "explanation": "ðŸš¨ EDGE OVERLOAD at VOGHERA--PAVIA | Trains involved: IC_1539, FR_9752, REG_10207 (+1 more) | Edge VOGHERA--PAVIA has 4 trains but capacity is 3. Overflow ratio: 1.3x",
        "resolution_suggestions": [
          "Hold trains at previous station",
          "Reroute via alternative track",
          "Reduce speed to create spacing"
        ]
      },
      "affected_trains": [
        {
          "train_id": "IC_1539",
          "train_type": "intercity",
          "current_station": null,
          "next_station": "PAVIA",
          "current_edge": "VOGHERA--PAVIA",
          "position_km": 2.0,
          "speed_kmh": 120,
          "delay_sec": 0,
          "status": "en_route",
          "lat": 45.01385403361344,
          "lon": 9.019432084033614,
          "route": [
            {
              "station_name": "VOGHERA",
              "station_order": 3,
              "lat": 44.9978,
              "lon": 9.007942,
              "distance_from_previous_km": 64.82
            },
            {
              "station_name": "PAVIA",
              "station_order": 4,
              "lat": 45.188843,
              "lon": 9.144674,
              "distance_from_previous_km": 23.8
            },
            {
              "station_name": "MILANO CENTRALE",
              "station_order": 5,
              "lat": 45.486347,
              "lon": 9.204528,
              "distance_from_previous_km": 33.4
            }
          ],
          "current_stop_index": 0
        },
        {
          "train_id": "FR_9752",
          "train_type": "high_speed",
          "current_station": null,
          "next_station": "MILANO CENTRALE",
          "current_edge": "VOGHERA--PAVIA",
          "position_km": 1.1333333333333333,
          "speed_kmh": 20,
          "delay_sec": 0,
          "status": "en_route",
          "lat": 45.53165520938872,
          "lon": 10.198355608915907,
          "route": [
            {
              "station_name": "BRESCIA",
              "station_order": 7,
              "lat": 45.532315,
              "lon": 10.212828,
              "distance_from_previous_km": 42.1
            },
            {
              "station_name": "MILANO CENTRALE",
              "station_order": 8,
              "lat": 45.486347,
              "lon": 9.204528,
              "distance_from_previous_km": 78.96
            }
          ],
          "current_stop_index": 0
        },
        {
          "train_id": "REG_10207",
          "train_type": "regional",
          "current_station": null,
          "next_station": "CASORATE SEMPIONE",
          "current_edge": "VOGHERA--PAVIA",
          "position_km": 1.9333333333333336,
          "speed_kmh": 20,
          "delay_sec": 0,
          "status": "en_route",
          "lat": 45.684931533877176,
          "lon": 8.717060462950375,
          "route": [
            {
              "station_name": "SESTO CALENDE",
              "station_order": 14,
              "lat": 45.726241,
              "lon": 8.628135,
              "distance_from_previous_km": 9.98
            },
            {
              "station_name": "VERGIATE",
              "station_order": 15,
              "lat": 45.717119,
              "lon": 8.693187,
              "distance_from_previous_km": 6.39
            },
            {
              "station_name": "SOMMA LOMBARDO",
              "station_order": 16,
              "lat": 45.686423,
              "lon": 8.712991,
              "distance_from_previous_km": 9.87
            },
            {
              "station_name": "CASORATE SEMPIONE",
              "station_order": 17,
              "lat": 45.675075,
              "lon": 8.743954,
              "distance_from_previous_km": 14.71
            },
            {
              "station_name": "GALLARATE",
              "station_order": 18,
              "lat": 45.659828,
              "lon": 8.798243,
              "distance_from_previous_km": 6.37
            },
            {
              "station_name": "BUSTO ARSIZIO",
              "station_order": 19,
              "lat": 45.616164,
              "lon": 8.865031,
              "distance_from_previous_km": 3.06
            },
            {
              "station_name": "RHO FIERA MILANO",
              "station_order": 20,
              "lat": 45.521157,
              "lon": 9.088595,
              "distance_from_previous_km": 3.56
            },
            {
              "station_name": "MILANO PORTA GARIBALDI",
              "station_order": 21,
              "lat": 45.484917,
              "lon": 9.187683,
              "distance_from_previous_km": 4.27
            }
          ],
          "current_stop_index": 2
        },
        {
          "train_id": "REG_2553",
          "train_type": "regional",
          "current_station": null,
          "next_station": "BISUSCHIO VIGGIU",
          "current_edge": "VOGHERA--PAVIA",
          "position_km": 2.733333333333334,
          "speed_kmh": 20,
          "delay_sec": 118,
          "status": "en_route",
          "lat": 45.892828068910255,
          "lon": 8.896147600961537,
          "route": [
            {
              "station_name": "PORTO CERESIO",
              "station_order": 1,
              "lat": 45.903675,
              "lon": 8.900357,
              "distance_from_previous_km": 4.18
            },
            {
              "station_name": "BISUSCHIO VIGGIU",
              "station_order": 2,
              "lat": 45.870658,
              "lon": 8.887544,
              "distance_from_previous_km": 8.32
            },
            {
              "station_name": "ARCISATE",
              "station_order": 3,
              "lat": 45.858579,
              "lon": 8.86241,
              "distance_from_previous_km": 10.82
            },
            {
              "station_name": "INDUNO OLONA",
              "station_order": 4,
              "lat": 45.846432,
              "lon": 8.838357,
              "distance_from_previous_km": 3.91
            },
            {
              "station_name": "VARESE",
              "station_order": 5,
              "lat": 45.816201,
              "lon": 8.833089,
              "distance_from_previous_km": 12.46
            },
            {
              "station_name": "GALLARATE",
              "station_order": 6,
              "lat": 45.659828,
              "lon": 8.798243,
              "distance_from_previous_km": 0.76
            },
            {
              "station_name": "BUSTO ARSIZIO",
              "station_order": 7,
              "lat": 45.616164,
              "lon": 8.865031,
              "distance_from_previous_km": 0.57
            },
            {
              "station_name": "LEGNANO",
              "station_order": 8,
              "lat": 45.593653,
              "lon": 8.910638,
              "distance_from_previous_km": 1.43
            },
            {
              "station_name": "RHO FIERA MILANO",
              "station_order": 9,
              "lat": 45.521157,
              "lon": 9.088595,
              "distance_from_previous_km": 23.11
            },
            {
              "station_name": "MILANO PORTA GARIBALDI",
              "station_order": 10,
              "lat": 45.484917,
              "lon": 9.187683,
              "distance_from_previous_km": 7.97
            }
          ],
          "current_stop_index": 0
        }
      ],
      "network_context": {},
      "status": "unresolved"
    },
    {
      "metadata": {
        "conflict_id": "6bff9f27-56cb-4d85-bbbe-b3c28d3b3eea",
        "timestamp": "2026-01-29T22:42:39.385415",
        "tick_number": 21,
        "simulation_time": "2026-01-29T06:21:00.886848"
      },
      "conflict": {
        "type": "edge_capacity_overflow",
        "severity": "medium",
        "probability": 1.0,
        "location": "VOGHERA--PAVIA",
        "location_type": "edge",
        "explanation": "ðŸš¨ EDGE OVERLOAD at VOGHERA--PAVIA | Trains involved: IC_1539, FR_9752, REG_10207 (+1 more) | Edge VOGHERA--PAVIA has 4 trains but capacity is 3. Overflow ratio: 1.3x",
        "resolution_suggestions": [
          "Hold trains at previous station",
          "Reroute via alternative track",
          "Reduce speed to create spacing"
        ]
      },
      "affected_trains": [
        {
          "train_id": "IC_1539",
          "train_type": "intercity",
          "current_station": null,
          "next_station": "PAVIA",
          "current_edge": "VOGHERA--PAVIA",
          "position_km": 4.0,
          "speed_kmh": 120,
          "delay_sec": 0,
          "status": "en_route",
          "lat": 45.02990806722689,
          "lon": 9.030922168067226,
          "route": [
            {
              "station_name": "VOGHERA",
              "station_order": 3,
              "lat": 44.9978,
              "lon": 9.007942,
              "distance_from_previous_km": 64.82
            },
            {
              "station_name": "PAVIA",
              "station_order": 4,
              "lat": 45.188843,
              "lon": 9.144674,
              "distance_from_previous_km": 23.8
            },
            {
              "station_name": "MILANO CENTRALE",
              "station_order": 5,
              "lat": 45.486347,
              "lon": 9.204528,
              "distance_from_previous_km": 33.4
            }
          ],
          "current_stop_index": 0
        },
        {
          "train_id": "FR_9752",
          "train_type": "high_speed",
          "current_station": null,
          "next_station": "MILANO CENTRALE",
          "current_edge": "VOGHERA--PAVIA",
          "position_km": 1.4666666666666668,
          "speed_kmh": 20,
          "delay_sec": 0,
          "status": "en_route",
          "lat": 45.531461153326575,
          "lon": 10.194099023302938,
          "route": [
            {
              "station_name": "BRESCIA",
              "station_order": 7,
              "lat": 45.532315,
              "lon": 10.212828,
              "distance_from_previous_km": 42.1
            },
            {
              "station_name": "MILANO CENTRALE",
              "station_order": 8,
              "lat": 45.486347,
              "lon": 9.204528,
              "distance_from_previous_km": 78.96
            }
          ],
          "current_stop_index": 0
        },
        {
          "train_id": "REG_10207",
          "train_type": "regional",
          "current_station": null,
          "next_station": "CASORATE SEMPIONE",
          "current_edge": "VOGHERA--PAVIA",
          "position_km": 2.266666666666667,
          "speed_kmh": 20,
          "delay_sec": 0,
          "status": "en_route",
          "lat": 45.68467438454566,
          "lon": 8.717762094493542,
          "route": [
            {
              "station_name": "SESTO CALENDE",
              "station_order": 14,
              "lat": 45.726241,
              "lon": 8.628135,
              "distance_from_previous_km": 9.98
            },
            {
              "station_name": "VERGIATE",
              "station_order": 15,
              "lat": 45.717119,
              "lon": 8.693187,
              "distance_from_previous_km": 6.39
            },
            {
              "station_name": "SOMMA LOMBARDO",
              "station_order": 16,
              "lat": 45.686423,
              "lon": 8.712991,
              "distance_from_previous_km": 9.87
            },
            {
              "station_name": "CASORATE SEMPIONE",
              "station_order": 17,
              "lat": 45.675075,
              "lon": 8.743954,
              "distance_from_previous_km": 14.71
            },
            {
              "station_name": "GALLARATE",
              "station_order": 18,
              "lat": 45.659828,
              "lon": 8.798243,
              "distance_from_previous_km": 6.37
            },
            {
              "station_name": "BUSTO ARSIZIO",
              "station_order": 19,
              "lat": 45.616164,
              "lon": 8.865031,
              "distance_from_previous_km": 3.06
            },
            {
              "station_name": "RHO FIERA MILANO",
              "station_order": 20,
              "lat": 45.521157,
              "lon": 9.088595,
              "distance_from_previous_km": 3.56
            },
            {
              "station_name": "MILANO PORTA GARIBALDI",
              "station_order": 21,
              "lat": 45.484917,
              "lon": 9.187683,
              "distance_from_previous_km": 4.27
            }
          ],
          "current_stop_index": 2
        },
        {
          "train_id": "REG_2553",
          "train_type": "regional",
          "current_station": null,
          "next_station": "BISUSCHIO VIGGIU",
          "current_edge": "VOGHERA--PAVIA",
          "position_km": 3.0666666666666673,
          "speed_kmh": 20,
          "delay_sec": 118,
          "status": "en_route",
          "lat": 45.8915052724359,
          "lon": 8.895634259615385,
          "route": [
            {
              "station_name": "PORTO CERESIO",
              "station_order": 1,
              "lat": 45.903675,
              "lon": 8.900357,
              "distance_from_previous_km": 4.18
            },
            {
              "station_name": "BISUSCHIO VIGGIU",
              "station_order": 2,
              "lat": 45.870658,
              "lon": 8.887544,
              "distance_from_previous_km": 8.32
            },
            {
              "station_name": "ARCISATE",
              "station_order": 3,
              "lat": 45.858579,
              "lon": 8.86241,
              "distance_from_previous_km": 10.82
            },
            {
              "station_name": "INDUNO OLONA",
              "station_order": 4,
              "lat": 45.846432,
              "lon": 8.838357,
              "distance_from_previous_km": 3.91
            },
            {
              "station_name": "VARESE",
              "station_order": 5,
              "lat": 45.816201,
              "lon": 8.833089,
              "distance_from_previous_km": 12.46
            },
            {
              "station_name": "GALLARATE",
              "station_order": 6,
              "lat": 45.659828,
              "lon": 8.798243,
              "distance_from_previous_km": 0.76
            },
            {
              "station_name": "BUSTO ARSIZIO",
              "station_order": 7,
              "lat": 45.616164,
              "lon": 8.865031,
              "distance_from_previous_km": 0.57
            },
            {
              "station_name": "LEGNANO",
              "station_order": 8,
              "lat": 45.593653,
              "lon": 8.910638,
              "distance_from_previous_km": 1.43
            },
            {
              "station_name": "RHO FIERA MILANO",
              "station_order": 9,
              "lat": 45.521157,
              "lon": 9.088595,
              "distance_from_previous_km": 23.11
            },
            {
              "station_name": "MILANO PORTA GARIBALDI",
              "station_order": 10,
              "lat": 45.484917,
              "lon": 9.187683,
              "distance_from_previous_km": 7.97
            }
          ],
          "current_stop_index": 0
        }
      ],
      "network_context": {},
      "status": "unresolved"
    },
    {
      "metadata": {
        "conflict_id": "65553c43-95c1-47c5-a0b1-43b1c3bfcee6",
        "timestamp": "2026-01-29T22:42:42.074168",
        "tick_number": 22,
        "simulation_time": "2026-01-29T06:22:00.886848"
      },
      "conflict": {
        "type": "edge_capacity_overflow",
        "severity": "medium",
        "probability": 1.0,
        "location": "VOGHERA--PAVIA",
        "location_type": "edge",
        "explanation": "ðŸš¨ EDGE OVERLOAD at VOGHERA--PAVIA | Trains involved: IC_1539, FR_9752, REG_10207 (+1 more) | Edge VOGHERA--PAVIA has 4 trains but capacity is 3. Overflow ratio: 1.3x",
        "resolution_suggestions": [
          "Hold trains at previous station",
          "Reroute via alternative track",
          "Reduce speed to create spacing"
        ]
      },
      "affected_trains": [
        {
          "train_id": "IC_1539",
          "train_type": "intercity",
          "current_station": null,
          "next_station": "PAVIA",
          "current_edge": "VOGHERA--PAVIA",
          "position_km": 6.0,
          "speed_kmh": 120,
          "delay_sec": 0,
          "status": "en_route",
          "lat": 45.045962100840335,
          "lon": 9.04241225210084,
          "route": [
            {
              "station_name": "VOGHERA",
              "station_order": 3,
              "lat": 44.9978,
              "lon": 9.007942,
              "distance_from_previous_km": 64.82
            },
            {
              "station_name": "PAVIA",
              "station_order": 4,
              "lat": 45.188843,
              "lon": 9.144674,
              "distance_from_previous_km": 23.8
            },
            {
              "station_name": "MILANO CENTRALE",
              "station_order": 5,
              "lat": 45.486347,
              "lon": 9.204528,
              "distance_from_previous_km": 33.4
            }
          ],
          "current_stop_index": 0
        },
        {
          "train_id": "FR_9752",
          "train_type": "high_speed",
          "current_station": null,
          "next_station": "MILANO CENTRALE",
          "current_edge": "VOGHERA--PAVIA",
          "position_km": 1.8000000000000003,
          "speed_kmh": 20,
          "delay_sec": 0,
          "status": "en_route",
          "lat": 45.53126709726443,
          "lon": 10.18984243768997,
          "route": [
            {
              "station_name": "BRESCIA",
              "station_order": 7,
              "lat": 45.532315,
              "lon": 10.212828,
              "distance_from_previous_km": 42.1
            },
            {
              "station_name": "MILANO CENTRALE",
              "station_order": 8,
              "lat": 45.486347,
              "lon": 9.204528,
              "distance_from_previous_km": 78.96
            }
          ],
          "current_stop_index": 0
        },
        {
          "train_id": "REG_10207",
          "train_type": "regional",
          "current_station": null,
          "next_station": "CASORATE SEMPIONE",
          "current_edge": "VOGHERA--PAVIA",
          "position_km": 2.6000000000000005,
          "speed_kmh": 20,
          "delay_sec": 0,
          "status": "en_route",
          "lat": 45.68441723521414,
          "lon": 8.71846372603671,
          "route": [
            {
              "station_name": "SESTO CALENDE",
              "station_order": 14,
              "lat": 45.726241,
              "lon": 8.628135,
              "distance_from_previous_km": 9.98
            },
            {
              "station_name": "VERGIATE",
              "station_order": 15,
              "lat": 45.717119,
              "lon": 8.693187,
              "distance_from_previous_km": 6.39
            },
            {
              "station_name": "SOMMA LOMBARDO",
              "station_order": 16,
              "lat": 45.686423,
              "lon": 8.712991,
              "distance_from_previous_km": 9.87
            },
            {
              "station_name": "CASORATE SEMPIONE",
              "station_order": 17,
              "lat": 45.675075,
              "lon": 8.743954,
              "distance_from_previous_km": 14.71
            },
            {
              "station_name": "GALLARATE",
              "station_order": 18,
              "lat": 45.659828,
              "lon": 8.798243,
              "distance_from_previous_km": 6.37
            },
            {
              "station_name": "BUSTO ARSIZIO",
              "station_order": 19,
              "lat": 45.616164,
              "lon": 8.865031,
              "distance_from_previous_km": 3.06
            },
            {
              "station_name": "RHO FIERA MILANO",
              "station_order": 20,
              "lat": 45.521157,
              "lon": 9.088595,
              "distance_from_previous_km": 3.56
            },
            {
              "station_name": "MILANO PORTA GARIBALDI",
              "station_order": 21,
              "lat": 45.484917,
              "lon": 9.187683,
              "distance_from_previous_km": 4.27
            }
          ],
          "current_stop_index": 2
        },
        {
          "train_id": "REG_2553",
          "train_type": "regional",
          "current_station": null,
          "next_station": "BISUSCHIO VIGGIU",
          "current_edge": "VOGHERA--PAVIA",
          "position_km": 3.400000000000001,
          "speed_kmh": 20,
          "delay_sec": 118,
          "status": "en_route",
          "lat": 45.89018247596154,
          "lon": 8.89512091826923,
          "route": [
            {
              "station_name": "PORTO CERESIO",
              "station_order": 1,
              "lat": 45.903675,
              "lon": 8.900357,
              "distance_from_previous_km": 4.18
            },
            {
              "station_name": "BISUSCHIO VIGGIU",
              "station_order": 2,
              "lat": 45.870658,
              "lon": 8.887544,
              "distance_from_previous_km": 8.32
            },
            {
              "station_name": "ARCISATE",
              "station_order": 3,
              "lat": 45.858579,
              "lon": 8.86241,
              "distance_from_previous_km": 10.82
            },
            {
              "station_name": "INDUNO OLONA",
              "station_order": 4,
              "lat": 45.846432,
              "lon": 8.838357,
              "distance_from_previous_km": 3.91
            },
            {
              "station_name": "VARESE",
              "station_order": 5,
              "lat": 45.816201,
              "lon": 8.833089,
              "distance_from_previous_km": 12.46
            },
            {
              "station_name": "GALLARATE",
              "station_order": 6,
              "lat": 45.659828,
              "lon": 8.798243,
              "distance_from_previous_km": 0.76
            },
            {
              "station_name": "BUSTO ARSIZIO",
              "station_order": 7,
              "lat": 45.616164,
              "lon": 8.865031,
              "distance_from_previous_km": 0.57
            },
            {
              "station_name": "LEGNANO",
              "station_order": 8,
              "lat": 45.593653,
              "lon": 8.910638,
              "distance_from_previous_km": 1.43
            },
            {
              "station_name": "RHO FIERA MILANO",
              "station_order": 9,
              "lat": 45.521157,
              "lon": 9.088595,
              "distance_from_previous_km": 23.11
            },
            {
              "station_name": "MILANO PORTA GARIBALDI",
              "station_order": 10,
              "lat": 45.484917,
              "lon": 9.187683,
              "distance_from_previous_km": 7.97
            }
          ],
          "current_stop_index": 0
        }
      ],
      "network_context": {},
      "status": "unresolved"
    },
    {
      "metadata": {
        "conflict_id": "8e889408-2dc5-4663-9a70-c360c88986d7",
        "timestamp": "2026-01-29T22:42:44.086945",
        "tick_number": 23,
        "simulation_time": "2026-01-29T06:23:00.886848"
      },
      "conflict": {
        "type": "edge_capacity_overflow",
        "severity": "medium",
        "probability": 1.0,
        "location": "VOGHERA--PAVIA",
        "location_type": "edge",
        "explanation": "ðŸš¨ EDGE OVERLOAD at VOGHERA--PAVIA | Trains involved: IC_1539, FR_9752, REG_10207 (+1 more) | Edge VOGHERA--PAVIA has 4 trains but capacity is 3. Overflow ratio: 1.3x",
        "resolution_suggestions": [
          "Hold trains at previous station",
          "Reroute via alternative track",
          "Reduce speed to create spacing"
        ]
      },
      "affected_trains": [
        {
          "train_id": "IC_1539",
          "train_type": "intercity",
          "current_station": null,
          "next_station": "PAVIA",
          "current_edge": "VOGHERA--PAVIA",
          "position_km": 8.0,
          "speed_kmh": 120,
          "delay_sec": 0,
          "status": "en_route",
          "lat": 45.06201613445378,
          "lon": 9.053902336134454,
          "route": [
            {
              "station_name": "VOGHERA",
              "station_order": 3,
              "lat": 44.9978,
              "lon": 9.007942,
              "distance_from_previous_km": 64.82
            },
            {
              "station_name": "PAVIA",
              "station_order": 4,
              "lat": 45.188843,
              "lon": 9.144674,
              "distance_from_previous_km": 23.8
            },
            {
              "station_name": "MILANO CENTRALE",
              "station_order": 5,
              "lat": 45.486347,
              "lon": 9.204528,
              "distance_from_previous_km": 33.4
            }
          ],
          "current_stop_index": 0
        },
        {
          "train_id": "FR_9752",
          "train_type": "high_speed",
          "current_station": null,
          "next_station": "MILANO CENTRALE",
          "current_edge": "VOGHERA--PAVIA",
          "position_km": 2.1333333333333337,
          "speed_kmh": 20,
          "delay_sec": 0,
          "status": "en_route",
          "lat": 45.53107304120229,
          "lon": 10.185585852077,
          "route": [
            {
              "station_name": "BRESCIA",
              "station_order": 7,
              "lat": 45.532315,
              "lon": 10.212828,
              "distance_from_previous_km": 42.1
            },
            {
              "station_name": "MILANO CENTRALE",
              "station_order": 8,
              "lat": 45.486347,
              "lon": 9.204528,
              "distance_from_previous_km": 78.96
            }
          ],
          "current_stop_index": 0
        },
        {
          "train_id": "REG_10207",
          "train_type": "regional",
          "current_station": null,
          "next_station": "CASORATE SEMPIONE",
          "current_edge": "VOGHERA--PAVIA",
          "position_km": 2.933333333333334,
          "speed_kmh": 20,
          "delay_sec": 0,
          "status": "en_route",
          "lat": 45.68416008588262,
          "lon": 8.719165357579879,
          "route": [
            {
              "station_name": "SESTO CALENDE",
              "station_order": 14,
              "lat": 45.726241,
              "lon": 8.628135,
              "distance_from_previous_km": 9.98
            },
            {
              "station_name": "VERGIATE",
              "station_order": 15,
              "lat": 45.717119,
              "lon": 8.693187,
              "distance_from_previous_km": 6.39
            },
            {
              "station_name": "SOMMA LOMBARDO",
              "station_order": 16,
              "lat": 45.686423,
              "lon": 8.712991,
              "distance_from_previous_km": 9.87
            },
            {
              "station_name": "CASORATE SEMPIONE",
              "station_order": 17,
              "lat": 45.675075,
              "lon": 8.743954,
              "distance_from_previous_km": 14.71
            },
            {
              "station_name": "GALLARATE",
              "station_order": 18,
              "lat": 45.659828,
              "lon": 8.798243,
              "distance_from_previous_km": 6.37
            },
            {
              "station_name": "BUSTO ARSIZIO",
              "station_order": 19,
              "lat": 45.616164,
              "lon": 8.865031,
              "distance_from_previous_km": 3.06
            },
            {
              "station_name": "RHO FIERA MILANO",
              "station_order": 20,
              "lat": 45.521157,
              "lon": 9.088595,
              "distance_from_previous_km": 3.56
            },
            {
              "station_name": "MILANO PORTA GARIBALDI",
              "station_order": 21,
              "lat": 45.484917,
              "lon": 9.187683,
              "distance_from_previous_km": 4.27
            }
          ],
          "current_stop_index": 2
        },
        {
          "train_id": "REG_2553",
          "train_type": "regional",
          "current_station": null,
          "next_station": "BISUSCHIO VIGGIU",
          "current_edge": "VOGHERA--PAVIA",
          "position_km": 3.7333333333333343,
          "speed_kmh": 20,
          "delay_sec": 118,
          "status": "en_route",
          "lat": 45.888859679487176,
          "lon": 8.894607576923077,
          "route": [
            {
              "station_name": "PORTO CERESIO",
              "station_order": 1,
              "lat": 45.903675,
              "lon": 8.900357,
              "distance_from_previous_km": 4.18
            },
            {
              "station_name": "BISUSCHIO VIGGIU",
              "station_order": 2,
              "lat": 45.870658,
              "lon": 8.887544,
              "distance_from_previous_km": 8.32
            },
            {
              "station_name": "ARCISATE",
              "station_order": 3,
              "lat": 45.858579,
              "lon": 8.86241,
              "distance_from_previous_km": 10.82
            },
            {
              "station_name": "INDUNO OLONA",
              "station_order": 4,
              "lat": 45.846432,
              "lon": 8.838357,
              "distance_from_previous_km": 3.91
            },
            {
              "station_name": "VARESE",
              "station_order": 5,
              "lat": 45.816201,
              "lon": 8.833089,
              "distance_from_previous_km": 12.46
            },
            {
              "station_name": "GALLARATE",
              "station_order": 6,
              "lat": 45.659828,
              "lon": 8.798243,
              "distance_from_previous_km": 0.76
            },
            {
              "station_name": "BUSTO ARSIZIO",
              "station_order": 7,
              "lat": 45.616164,
              "lon": 8.865031,
              "distance_from_previous_km": 0.57
            },
            {
              "station_name": "LEGNANO",
              "station_order": 8,
              "lat": 45.593653,
              "lon": 8.910638,
              "distance_from_previous_km": 1.43
            },
            {
              "station_name": "RHO FIERA MILANO",
              "station_order": 9,
              "lat": 45.521157,
              "lon": 9.088595,
              "distance_from_previous_km": 23.11
            },
            {
              "station_name": "MILANO PORTA GARIBALDI",
              "station_order": 10,
              "lat": 45.484917,
              "lon": 9.187683,
              "distance_from_previous_km": 7.97
            }
          ],
          "current_stop_index": 0
        }
      ],
      "network_context": {},
      "status": "unresolved"
    },
    {
      "metadata": {
        "conflict_id": "d6d549d6-635a-44d1-8643-430acb15e09b",
        "timestamp": "2026-01-29T22:42:46.078134",
        "tick_number": 24,
        "simulation_time": "2026-01-29T06:24:00.886848"
      },
      "conflict": {
        "type": "edge_capacity_overflow",
        "severity": "medium",
        "probability": 1.0,
        "location": "VOGHERA--PAVIA",
        "location_type": "edge",
        "explanation": "ðŸš¨ EDGE OVERLOAD at VOGHERA--PAVIA | Trains involved: IC_1539, FR_9752, REG_10207 (+1 more) | Edge VOGHERA--PAVIA has 4 trains but capacity is 3. Overflow ratio: 1.3x",
        "resolution_suggestions": [
          "Hold trains at previous station",
          "Reroute via alternative track",
          "Reduce speed to create spacing"
        ]
      },
      "affected_trains": [
        {
          "train_id": "IC_1539",
          "train_type": "intercity",
          "current_station": null,
          "next_station": "PAVIA",
          "current_edge": "VOGHERA--PAVIA",
          "position_km": 10.0,
          "speed_kmh": 120,
          "delay_sec": 0,
          "status": "en_route",
          "lat": 45.07807016806723,
          "lon": 9.065392420168067,
          "route": [
            {
              "station_name": "VOGHERA",
              "station_order": 3,
              "lat": 44.9978,
              "lon": 9.007942,
              "distance_from_previous_km": 64.82
            },
            {
              "station_name": "PAVIA",
              "station_order": 4,
              "lat": 45.188843,
              "lon": 9.144674,
              "distance_from_previous_km": 23.8
            },
            {
              "station_name": "MILANO CENTRALE",
              "station_order": 5,
              "lat": 45.486347,
              "lon": 9.204528,
              "distance_from_previous_km": 33.4
            }
          ],
          "current_stop_index": 0
        },
        {
          "train_id": "FR_9752",
          "train_type": "high_speed",
          "current_station": null,
          "next_station": "MILANO CENTRALE",
          "current_edge": "VOGHERA--PAVIA",
          "position_km": 2.4666666666666672,
          "speed_kmh": 20,
          "delay_sec": 0,
          "status": "en_route",
          "lat": 45.530878985140156,
          "lon": 10.181329266464033,
          "route": [
            {
              "station_name": "BRESCIA",
              "station_order": 7,
              "lat": 45.532315,
              "lon": 10.212828,
              "distance_from_previous_km": 42.1
            },
            {
              "station_name": "MILANO CENTRALE",
              "station_order": 8,
              "lat": 45.486347,
              "lon": 9.204528,
              "distance_from_previous_km": 78.96
            }
          ],
          "current_stop_index": 0
        },
        {
          "train_id": "REG_10207",
          "train_type": "regional",
          "current_station": null,
          "next_station": "CASORATE SEMPIONE",
          "current_edge": "VOGHERA--PAVIA",
          "position_km": 3.2666666666666675,
          "speed_kmh": 20,
          "delay_sec": 0,
          "status": "en_route",
          "lat": 45.6839029365511,
          "lon": 8.719866989123046,
          "route": [
            {
              "station_name": "SESTO CALENDE",
              "station_order": 14,
              "lat": 45.726241,
              "lon": 8.628135,
              "distance_from_previous_km": 9.98
            },
            {
              "station_name": "VERGIATE",
              "station_order": 15,
              "lat": 45.717119,
              "lon": 8.693187,
              "distance_from_previous_km": 6.39
            },
            {
              "station_name": "SOMMA LOMBARDO",
              "station_order": 16,
              "lat": 45.686423,
              "lon": 8.712991,
              "distance_from_previous_km": 9.87
            },
            {
              "station_name": "CASORATE SEMPIONE",
              "station_order": 17,
              "lat": 45.675075,
              "lon": 8.743954,
              "distance_from_previous_km": 14.71
            },
            {
              "station_name": "GALLARATE",
              "station_order": 18,
              "lat": 45.659828,
              "lon": 8.798243,
              "distance_from_previous_km": 6.37
            },
            {
              "station_name": "BUSTO ARSIZIO",
              "station_order": 19,
              "lat": 45.616164,
              "lon": 8.865031,
              "distance_from_previous_km": 3.06
            },
            {
              "station_name": "RHO FIERA MILANO",
              "station_order": 20,
              "lat": 45.521157,
              "lon": 9.088595,
              "distance_from_previous_km": 3.56
            },
            {
              "station_name": "MILANO PORTA GARIBALDI",
              "station_order": 21,
              "lat": 45.484917,
              "lon": 9.187683,
              "distance_from_previous_km": 4.27
            }
          ],
          "current_stop_index": 2
        },
        {
          "train_id": "REG_2553",
          "train_type": "regional",
          "current_station": null,
          "next_station": "BISUSCHIO VIGGIU",
          "current_edge": "VOGHERA--PAVIA",
          "position_km": 4.066666666666667,
          "speed_kmh": 20,
          "delay_sec": 118,
          "status": "en_route",
          "lat": 45.88753688301282,
          "lon": 8.894094235576922,
          "route": [
            {
              "station_name": "PORTO CERESIO",
              "station_order": 1,
              "lat": 45.903675,
              "lon": 8.900357,
              "distance_from_previous_km": 4.18
            },
            {
              "station_name": "BISUSCHIO VIGGIU",
              "station_order": 2,
              "lat": 45.870658,
              "lon": 8.887544,
              "distance_from_previous_km": 8.32
            },
            {
              "station_name": "ARCISATE",
              "station_order": 3,
              "lat": 45.858579,
              "lon": 8.86241,
              "distance_from_previous_km": 10.82
            },
            {
              "station_name": "INDUNO OLONA",
              "station_order": 4,
              "lat": 45.846432,
              "lon": 8.838357,
              "distance_from_previous_km": 3.91
            },
            {
              "station_name": "VARESE",
              "station_order": 5,
              "lat": 45.816201,
              "lon": 8.833089,
              "distance_from_previous_km": 12.46
            },
            {
              "station_name": "GALLARATE",
              "station_order": 6,
              "lat": 45.659828,
              "lon": 8.798243,
              "distance_from_previous_km": 0.76
            },
            {
              "station_name": "BUSTO ARSIZIO",
              "station_order": 7,
              "lat": 45.616164,
              "lon": 8.865031,
              "distance_from_previous_km": 0.57
            },
            {
              "station_name": "LEGNANO",
              "station_order": 8,
              "lat": 45.593653,
              "lon": 8.910638,
              "distance_from_previous_km": 1.43
            },
            {
              "station_name": "RHO FIERA MILANO",
              "station_order": 9,
              "lat": 45.521157,
              "lon": 9.088595,
              "distance_from_previous_km": 23.11
            },
            {
              "station_name": "MILANO PORTA GARIBALDI",
              "station_order": 10,
              "lat": 45.484917,
              "lon": 9.187683,
              "distance_from_previous_km": 7.97
            }
          ],
          "current_stop_index": 0
        }
      ],
      "network_context": {},
      "status": "unresolved"
    },
    {
      "metadata": {
        "conflict_id": "b03b4589-e8ba-4344-9736-cdb692528dec",
        "timestamp": "2026-01-29T22:42:48.078329",
        "tick_number": 25,
        "simulation_time": "2026-01-29T06:25:00.886848"
      },
      "conflict": {
        "type": "edge_capacity_overflow",
        "severity": "medium",
        "probability": 1.0,
        "location": "VOGHERA--PAVIA",
        "location_type": "edge",
        "explanation": "ðŸš¨ EDGE OVERLOAD at VOGHERA--PAVIA | Trains involved: IC_1539, FR_9752, REG_10207 (+1 more) | Edge VOGHERA--PAVIA has 4 trains but capacity is 3. Overflow ratio: 1.3x",
        "resolution_suggestions": [
          "Hold trains at previous station",
          "Reroute via alternative track",
          "Reduce speed to create spacing"
        ]
      },
      "affected_trains": [
        {
          "train_id": "IC_1539",
          "train_type": "intercity",
          "current_station": null,
          "next_station": "PAVIA",
          "current_edge": "VOGHERA--PAVIA",
          "position_km": 12.0,
          "speed_kmh": 120,
          "delay_sec": 0,
          "status": "en_route",
          "lat": 45.09412420168067,
          "lon": 9.07688250420168,
          "route": [
            {
              "station_name": "VOGHERA",
              "station_order": 3,
              "lat": 44.9978,
              "lon": 9.007942,
              "distance_from_previous_km": 64.82
            },
            {
              "station_name": "PAVIA",
              "station_order": 4,
              "lat": 45.188843,
              "lon": 9.144674,
              "distance_from_previous_km": 23.8
            },
            {
              "station_name": "MILANO CENTRALE",
              "station_order": 5,
              "lat": 45.486347,
              "lon": 9.204528,
              "distance_from_previous_km": 33.4
            }
          ],
          "current_stop_index": 0
        },
        {
          "train_id": "FR_9752",
          "train_type": "high_speed",
          "current_station": null,
          "next_station": "MILANO CENTRALE",
          "current_edge": "VOGHERA--PAVIA",
          "position_km": 2.8000000000000007,
          "speed_kmh": 20,
          "delay_sec": 0,
          "status": "en_route",
          "lat": 45.530684929078014,
          "lon": 10.177072680851063,
          "route": [
            {
              "station_name": "BRESCIA",
              "station_order": 7,
              "lat": 45.532315,
              "lon": 10.212828,
              "distance_from_previous_km": 42.1
            },
            {
              "station_name": "MILANO CENTRALE",
              "station_order": 8,
              "lat": 45.486347,
              "lon": 9.204528,
              "distance_from_previous_km": 78.96
            }
          ],
          "current_stop_index": 0
        },
        {
          "train_id": "REG_10207",
          "train_type": "regional",
          "current_station": null,
          "next_station": "CASORATE SEMPIONE",
          "current_edge": "VOGHERA--PAVIA",
          "position_km": 3.600000000000001,
          "speed_kmh": 20,
          "delay_sec": 0,
          "status": "en_route",
          "lat": 45.683645787219575,
          "lon": 8.720568620666214,
          "route": [
            {
              "station_name": "SESTO CALENDE",
              "station_order": 14,
              "lat": 45.726241,
              "lon": 8.628135,
              "distance_from_previous_km": 9.98
            },
            {
              "station_name": "VERGIATE",
              "station_order": 15,
              "lat": 45.717119,
              "lon": 8.693187,
              "distance_from_previous_km": 6.39
            },
            {
              "station_name": "SOMMA LOMBARDO",
              "station_order": 16,
              "lat": 45.686423,
              "lon": 8.712991,
              "distance_from_previous_km": 9.87
            },
            {
              "station_name": "CASORATE SEMPIONE",
              "station_order": 17,
              "lat": 45.675075,
              "lon": 8.743954,
              "distance_from_previous_km": 14.71
            },
            {
              "station_name": "GALLARATE",
              "station_order": 18,
              "lat": 45.659828,
              "lon": 8.798243,
              "distance_from_previous_km": 6.37
            },
            {
              "station_name": "BUSTO ARSIZIO",
              "station_order": 19,
              "lat": 45.616164,
              "lon": 8.865031,
              "distance_from_previous_km": 3.06
            },
            {
              "station_name": "RHO FIERA MILANO",
              "station_order": 20,
              "lat": 45.521157,
              "lon": 9.088595,
              "distance_from_previous_km": 3.56
            },
            {
              "station_name": "MILANO PORTA GARIBALDI",
              "station_order": 21,
              "lat": 45.484917,
              "lon": 9.187683,
              "distance_from_previous_km": 4.27
            }
          ],
          "current_stop_index": 2
        },
        {
          "train_id": "REG_2553",
          "train_type": "regional",
          "current_station": null,
          "next_station": "BISUSCHIO VIGGIU",
          "current_edge": "VOGHERA--PAVIA",
          "position_km": 4.4,
          "speed_kmh": 20,
          "delay_sec": 118,
          "status": "en_route",
          "lat": 45.88621408653846,
          "lon": 8.89358089423077,
          "route": [
            {
              "station_name": "PORTO CERESIO",
              "station_order": 1,
              "lat": 45.903675,
              "lon": 8.900357,
              "distance_from_previous_km": 4.18
            },
            {
              "station_name": "BISUSCHIO VIGGIU",
              "station_order": 2,
              "lat": 45.870658,
              "lon": 8.887544,
              "distance_from_previous_km": 8.32
            },
            {
              "station_name": "ARCISATE",
              "station_order": 3,
              "lat": 45.858579,
              "lon": 8.86241,
              "distance_from_previous_km": 10.82
            },
            {
              "station_name": "INDUNO OLONA",
              "station_order": 4,
              "lat": 45.846432,
              "lon": 8.838357,
              "distance_from_previous_km": 3.91
            },
            {
              "station_name": "VARESE",
              "station_order": 5,
              "lat": 45.816201,
              "lon": 8.833089,
              "distance_from_previous_km": 12.46
            },
            {
              "station_name": "GALLARATE",
              "station_order": 6,
              "lat": 45.659828,
              "lon": 8.798243,
              "distance_from_previous_km": 0.76
            },
            {
              "station_name": "BUSTO ARSIZIO",
              "station_order": 7,
              "lat": 45.616164,
              "lon": 8.865031,
              "distance_from_previous_km": 0.57
            },
            {
              "station_name": "LEGNANO",
              "station_order": 8,
              "lat": 45.593653,
              "lon": 8.910638,
              "distance_from_previous_km": 1.43
            },
            {
              "station_name": "RHO FIERA MILANO",
              "station_order": 9,
              "lat": 45.521157,
              "lon": 9.088595,
              "distance_from_previous_km": 23.11
            },
            {
              "station_name": "MILANO PORTA GARIBALDI",
              "station_order": 10,
              "lat": 45.484917,
              "lon": 9.187683,
              "distance_from_previous_km": 7.97
            }
          ],
          "current_stop_index": 0
        }
      ],
      "network_context": {},
      "status": "unresolved"
    },
    {
      "metadata": {
        "conflict_id": "ccd06b1a-1a82-4be2-9dbd-c0639e114353",
        "timestamp": "2026-01-29T22:42:50.116703",
        "tick_number": 26,
        "simulation_time": "2026-01-29T06:26:00.886848"
      },
      "conflict": {
        "type": "edge_capacity_overflow",
        "severity": "medium",
        "probability": 1.0,
        "location": "VOGHERA--PAVIA",
        "location_type": "edge",
        "explanation": "ðŸš¨ EDGE OVERLOAD at VOGHERA--PAVIA | Trains involved: IC_1539, FR_9752, REG_10207 (+1 more) | Edge VOGHERA--PAVIA has 4 trains but capacity is 3. Overflow ratio: 1.3x",
        "resolution_suggestions": [
          "Hold trains at previous station",
          "Reroute via alternative track",
          "Reduce speed to create spacing"
        ]
      },
      "affected_trains": [
        {
          "train_id": "IC_1539",
          "train_type": "intercity",
          "current_station": null,
          "next_station": "PAVIA",
          "current_edge": "VOGHERA--PAVIA",
          "position_km": 14.0,
          "speed_kmh": 120,
          "delay_sec": 0,
          "status": "en_route",
          "lat": 45.110178235294114,
          "lon": 9.088372588235295,
          "route": [
            {
              "station_name": "VOGHERA",
              "station_order": 3,
              "lat": 44.9978,
              "lon": 9.007942,
              "distance_from_previous_km": 64.82
            },
            {
              "station_name": "PAVIA",
              "station_order": 4,
              "lat": 45.188843,
              "lon": 9.144674,
              "distance_from_previous_km": 23.8
            },
            {
              "station_name": "MILANO CENTRALE",
              "station_order": 5,
              "lat": 45.486347,
              "lon": 9.204528,
              "distance_from_previous_km": 33.4
            }
          ],
          "current_stop_index": 0
        },
        {
          "train_id": "FR_9752",
          "train_type": "high_speed",
          "current_station": null,
          "next_station": "MILANO CENTRALE",
          "current_edge": "VOGHERA--PAVIA",
          "position_km": 3.133333333333334,
          "speed_kmh": 20,
          "delay_sec": 0,
          "status": "en_route",
          "lat": 45.53049087301587,
          "lon": 10.172816095238096,
          "route": [
            {
              "station_name": "BRESCIA",
              "station_order": 7,
              "lat": 45.532315,
              "lon": 10.212828,
              "distance_from_previous_km": 42.1
            },
            {
              "station_name": "MILANO CENTRALE",
              "station_order": 8,
              "lat": 45.486347,
              "lon": 9.204528,
              "distance_from_previous_km": 78.96
            }
          ],
          "current_stop_index": 0
        },
        {
          "train_id": "REG_10207",
          "train_type": "regional",
          "current_station": null,
          "next_station": "CASORATE SEMPIONE",
          "current_edge": "VOGHERA--PAVIA",
          "position_km": 3.9333333333333345,
          "speed_kmh": 20,
          "delay_sec": 0,
          "status": "en_route",
          "lat": 45.68338863788806,
          "lon": 8.721270252209383,
          "route": [
            {
              "station_name": "SESTO CALENDE",
              "station_order": 14,
              "lat": 45.726241,
              "lon": 8.628135,
              "distance_from_previous_km": 9.98
            },
            {
              "station_name": "VERGIATE",
              "station_order": 15,
              "lat": 45.717119,
              "lon": 8.693187,
              "distance_from_previous_km": 6.39
            },
            {
              "station_name": "SOMMA LOMBARDO",
              "station_order": 16,
              "lat": 45.686423,
              "lon": 8.712991,
              "distance_from_previous_km": 9.87
            },
            {
              "station_name": "CASORATE SEMPIONE",
              "station_order": 17,
              "lat": 45.675075,
              "lon": 8.743954,
              "distance_from_previous_km": 14.71
            },
            {
              "station_name": "GALLARATE",
              "station_order": 18,
              "lat": 45.659828,
              "lon": 8.798243,
              "distance_from_previous_km": 6.37
            },
            {
              "station_name": "BUSTO ARSIZIO",
              "station_order": 19,
              "lat": 45.616164,
              "lon": 8.865031,
              "distance_from_previous_km": 3.06
            },
            {
              "station_name": "RHO FIERA MILANO",
              "station_order": 20,
              "lat": 45.521157,
              "lon": 9.088595,
              "distance_from_previous_km": 3.56
            },
            {
              "station_name": "MILANO PORTA GARIBALDI",
              "station_order": 21,
              "lat": 45.484917,
              "lon": 9.187683,
              "distance_from_previous_km": 4.27
            }
          ],
          "current_stop_index": 2
        },
        {
          "train_id": "REG_2553",
          "train_type": "regional",
          "current_station": null,
          "next_station": "BISUSCHIO VIGGIU",
          "current_edge": "VOGHERA--PAVIA",
          "position_km": 4.733333333333333,
          "speed_kmh": 20,
          "delay_sec": 118,
          "status": "en_route",
          "lat": 45.884891290064104,
          "lon": 8.893067552884615,
          "route": [
            {
              "station_name": "PORTO CERESIO",
              "station_order": 1,
              "lat": 45.903675,
              "lon": 8.900357,
              "distance_from_previous_km": 4.18
            },
            {
              "station_name": "BISUSCHIO VIGGIU",
              "station_order": 2,
              "lat": 45.870658,
              "lon": 8.887544,
              "distance_from_previous_km": 8.32
            },
            {
              "station_name": "ARCISATE",
              "station_order": 3,
              "lat": 45.858579,
              "lon": 8.86241,
              "distance_from_previous_km": 10.82
            },
            {
              "station_name": "INDUNO OLONA",
              "station_order": 4,
              "lat": 45.846432,
              "lon": 8.838357,
              "distance_from_previous_km": 3.91
            },
            {
              "station_name": "VARESE",
              "station_order": 5,
              "lat": 45.816201,
              "lon": 8.833089,
              "distance_from_previous_km": 12.46
            },
            {
              "station_name": "GALLARATE",
              "station_order": 6,
              "lat": 45.659828,
              "lon": 8.798243,
              "distance_from_previous_km": 0.76
            },
            {
              "station_name": "BUSTO ARSIZIO",
              "station_order": 7,
              "lat": 45.616164,
              "lon": 8.865031,
              "distance_from_previous_km": 0.57
            },
            {
              "station_name": "LEGNANO",
              "station_order": 8,
              "lat": 45.593653,
              "lon": 8.910638,
              "distance_from_previous_km": 1.43
            },
            {
              "station_name": "RHO FIERA MILANO",
              "station_order": 9,
              "lat": 45.521157,
              "lon": 9.088595,
              "distance_from_previous_km": 23.11
            },
            {
              "station_name": "MILANO PORTA GARIBALDI",
              "station_order": 10,
              "lat": 45.484917,
              "lon": 9.187683,
              "distance_from_previous_km": 7.97
            }
          ],
          "current_stop_index": 0
        }
      ],
      "network_context": {},
      "status": "unresolved"
    },
    {
      "metadata": {
        "conflict_id": "e814416d-b051-4fbf-9ce7-26e0be1d2eec",
        "timestamp": "2026-01-29T22:42:52.081978",
        "tick_number": 27,
        "simulation_time": "2026-01-29T06:27:00.886848"
      },
      "conflict": {
        "type": "edge_capacity_overflow",
        "severity": "medium",
        "probability": 1.0,
        "location": "VOGHERA--PAVIA",
        "location_type": "edge",
        "explanation": "ðŸš¨ EDGE OVERLOAD at VOGHERA--PAVIA | Trains involved: IC_1539, FR_9752, REG_10207 (+1 more) | Edge VOGHERA--PAVIA has 4 trains but capacity is 3. Overflow ratio: 1.3x",
        "resolution_suggestions": [
          "Hold trains at previous station",
          "Reroute via alternative track",
          "Reduce speed to create spacing"
        ]
      },
      "affected_trains": [
        {
          "train_id": "IC_1539",
          "train_type": "intercity",
          "current_station": null,
          "next_station": "PAVIA",
          "current_edge": "VOGHERA--PAVIA",
          "position_km": 16.0,
          "speed_kmh": 120,
          "delay_sec": 0,
          "status": "en_route",
          "lat": 45.126232268907565,
          "lon": 9.099862672268907,
          "route": [
            {
              "station_name": "VOGHERA",
              "station_order": 3,
              "lat": 44.9978,
              "lon": 9.007942,
              "distance_from_previous_km": 64.82
            },
            {
              "station_name": "PAVIA",
              "station_order": 4,
              "lat": 45.188843,
              "lon": 9.144674,
              "distance_from_previous_km": 23.8
            },
            {
              "station_name": "MILANO CENTRALE",
              "station_order": 5,
              "lat": 45.486347,
              "lon": 9.204528,
              "distance_from_previous_km": 33.4
            }
          ],
          "current_stop_index": 0
        },
        {
          "train_id": "FR_9752",
          "train_type": "high_speed",
          "current_station": null,
          "next_station": "MILANO CENTRALE",
          "current_edge": "VOGHERA--PAVIA",
          "position_km": 3.4666666666666677,
          "speed_kmh": 20,
          "delay_sec": 0,
          "status": "en_route",
          "lat": 45.53029681695373,
          "lon": 10.168559509625126,
          "route": [
            {
              "station_name": "BRESCIA",
              "station_order": 7,
              "lat": 45.532315,
              "lon": 10.212828,
              "distance_from_previous_km": 42.1
            },
            {
              "station_name": "MILANO CENTRALE",
              "station_order": 8,
              "lat": 45.486347,
              "lon": 9.204528,
              "distance_from_previous_km": 78.96
            }
          ],
          "current_stop_index": 0
        },
        {
          "train_id": "REG_10207",
          "train_type": "regional",
          "current_station": null,
          "next_station": "CASORATE SEMPIONE",
          "current_edge": "VOGHERA--PAVIA",
          "position_km": 4.2666666666666675,
          "speed_kmh": 20,
          "delay_sec": 0,
          "status": "en_route",
          "lat": 45.68313148855653,
          "lon": 8.72197188375255,
          "route": [
            {
              "station_name": "SESTO CALENDE",
              "station_order": 14,
              "lat": 45.726241,
              "lon": 8.628135,
              "distance_from_previous_km": 9.98
            },
            {
              "station_name": "VERGIATE",
              "station_order": 15,
              "lat": 45.717119,
              "lon": 8.693187,
              "distance_from_previous_km": 6.39
            },
            {
              "station_name": "SOMMA LOMBARDO",
              "station_order": 16,
              "lat": 45.686423,
              "lon": 8.712991,
              "distance_from_previous_km": 9.87
            },
            {
              "station_name": "CASORATE SEMPIONE",
              "station_order": 17,
              "lat": 45.675075,
              "lon": 8.743954,
              "distance_from_previous_km": 14.71
            },
            {
              "station_name": "GALLARATE",
              "station_order": 18,
              "lat": 45.659828,
              "lon": 8.798243,
              "distance_from_previous_km": 6.37
            },
            {
              "station_name": "BUSTO ARSIZIO",
              "station_order": 19,
              "lat": 45.616164,
              "lon": 8.865031,
              "distance_from_previous_km": 3.06
            },
            {
              "station_name": "RHO FIERA MILANO",
              "station_order": 20,
              "lat": 45.521157,
              "lon": 9.088595,
              "distance_from_previous_km": 3.56
            },
            {
              "station_name": "MILANO PORTA GARIBALDI",
              "station_order": 21,
              "lat": 45.484917,
              "lon": 9.187683,
              "distance_from_previous_km": 4.27
            }
          ],
          "current_stop_index": 2
        },
        {
          "train_id": "REG_2553",
          "train_type": "regional",
          "current_station": null,
          "next_station": "BISUSCHIO VIGGIU",
          "current_edge": "VOGHERA--PAVIA",
          "position_km": 5.066666666666666,
          "speed_kmh": 20,
          "delay_sec": 118,
          "status": "en_route",
          "lat": 45.88356849358974,
          "lon": 8.892554211538462,
          "route": [
            {
              "station_name": "PORTO CERESIO",
              "station_order": 1,
              "lat": 45.903675,
              "lon": 8.900357,
              "distance_from_previous_km": 4.18
            },
            {
              "station_name": "BISUSCHIO VIGGIU",
              "station_order": 2,
              "lat": 45.870658,
              "lon": 8.887544,
              "distance_from_previous_km": 8.32
            },
            {
              "station_name": "ARCISATE",
              "station_order": 3,
              "lat": 45.858579,
              "lon": 8.86241,
              "distance_from_previous_km": 10.82
            },
            {
              "station_name": "INDUNO OLONA",
              "station_order": 4,
              "lat": 45.846432,
              "lon": 8.838357,
              "distance_from_previous_km": 3.91
            },
            {
              "station_name": "VARESE",
              "station_order": 5,
              "lat": 45.816201,
              "lon": 8.833089,
              "distance_from_previous_km": 12.46
            },
            {
              "station_name": "GALLARATE",
              "station_order": 6,
              "lat": 45.659828,
              "lon": 8.798243,
              "distance_from_previous_km": 0.76
            },
            {
              "station_name": "BUSTO ARSIZIO",
              "station_order": 7,
              "lat": 45.616164,
              "lon": 8.865031,
              "distance_from_previous_km": 0.57
            },
            {
              "station_name": "LEGNANO",
              "station_order": 8,
              "lat": 45.593653,
              "lon": 8.910638,
              "distance_from_previous_km": 1.43
            },
            {
              "station_name": "RHO FIERA MILANO",
              "station_order": 9,
              "lat": 45.521157,
              "lon": 9.088595,
              "distance_from_previous_km": 23.11
            },
            {
              "station_name": "MILANO PORTA GARIBALDI",
              "station_order": 10,
              "lat": 45.484917,
              "lon": 9.187683,
              "distance_from_previous_km": 7.97
            }
          ],
          "current_stop_index": 0
        }
      ],
      "network_context": {},
      "status": "unresolved"
    },
    {
      "metadata": {
        "conflict_id": "74a3b840-5f14-4225-8903-7317f3b48296",
        "timestamp": "2026-01-29T22:42:54.073810",
        "tick_number": 28,
        "simulation_time": "2026-01-29T06:28:00.886848"
      },
      "conflict": {
        "type": "edge_capacity_overflow",
        "severity": "medium",
        "probability": 1.0,
        "location": "VOGHERA--PAVIA",
        "location_type": "edge",
        "explanation": "ðŸš¨ EDGE OVERLOAD at VOGHERA--PAVIA | Trains involved: IC_1539, FR_9752, REG_10207 (+1 more) | Edge VOGHERA--PAVIA has 4 trains but capacity is 3. Overflow ratio: 1.3x",
        "resolution_suggestions": [
          "Hold trains at previous station",
          "Reroute via alternative track",
          "Reduce speed to create spacing"
        ]
      },
      "affected_trains": [
        {
          "train_id": "IC_1539",
          "train_type": "intercity",
          "current_station": null,
          "next_station": "PAVIA",
          "current_edge": "VOGHERA--PAVIA",
          "position_km": 18.0,
          "speed_kmh": 120,
          "delay_sec": 0,
          "status": "en_route",
          "lat": 45.14228630252101,
          "lon": 9.111352756302521,
          "route": [
            {
              "station_name": "VOGHERA",
              "station_order": 3,
              "lat": 44.9978,
              "lon": 9.007942,
              "distance_from_previous_km": 64.82
            },
            {
              "station_name": "PAVIA",
              "station_order": 4,
              "lat": 45.188843,
              "lon": 9.144674,
              "distance_from_previous_km": 23.8
            },
            {
              "station_name": "MILANO CENTRALE",
              "station_order": 5,
              "lat": 45.486347,
              "lon": 9.204528,
              "distance_from_previous_km": 33.4
            }
          ],
          "current_stop_index": 0
        },
        {
          "train_id": "FR_9752",
          "train_type": "high_speed",
          "current_station": null,
          "next_station": "MILANO CENTRALE",
          "current_edge": "VOGHERA--PAVIA",
          "position_km": 3.800000000000001,
          "speed_kmh": 20,
          "delay_sec": 0,
          "status": "en_route",
          "lat": 45.53010276089159,
          "lon": 10.164302924012159,
          "route": [
            {
              "station_name": "BRESCIA",
              "station_order": 7,
              "lat": 45.532315,
              "lon": 10.212828,
              "distance_from_previous_km": 42.1
            },
            {
              "station_name": "MILANO CENTRALE",
              "station_order": 8,
              "lat": 45.486347,
              "lon": 9.204528,
              "distance_from_previous_km": 78.96
            }
          ],
          "current_stop_index": 0
        },
        {
          "train_id": "REG_10207",
          "train_type": "regional",
          "current_station": null,
          "next_station": "CASORATE SEMPIONE",
          "current_edge": "VOGHERA--PAVIA",
          "position_km": 4.6000000000000005,
          "speed_kmh": 20,
          "delay_sec": 0,
          "status": "en_route",
          "lat": 45.682874339225016,
          "lon": 8.722673515295718,
          "route": [
            {
              "station_name": "SESTO CALENDE",
              "station_order": 14,
              "lat": 45.726241,
              "lon": 8.628135,
              "distance_from_previous_km": 9.98
            },
            {
              "station_name": "VERGIATE",
              "station_order": 15,
              "lat": 45.717119,
              "lon": 8.693187,
              "distance_from_previous_km": 6.39
            },
            {
              "station_name": "SOMMA LOMBARDO",
              "station_order": 16,
              "lat": 45.686423,
              "lon": 8.712991,
              "distance_from_previous_km": 9.87
            },
            {
              "station_name": "CASORATE SEMPIONE",
              "station_order": 17,
              "lat": 45.675075,
              "lon": 8.743954,
              "distance_from_previous_km": 14.71
            },
            {
              "station_name": "GALLARATE",
              "station_order": 18,
              "lat": 45.659828,
              "lon": 8.798243,
              "distance_from_previous_km": 6.37
            },
            {
              "station_name": "BUSTO ARSIZIO",
              "station_order": 19,
              "lat": 45.616164,
              "lon": 8.865031,
              "distance_from_previous_km": 3.06
            },
            {
              "station_name": "RHO FIERA MILANO",
              "station_order": 20,
              "lat": 45.521157,
              "lon": 9.088595,
              "distance_from_previous_km": 3.56
            },
            {
              "station_name": "MILANO PORTA GARIBALDI",
              "station_order": 21,
              "lat": 45.484917,
              "lon": 9.187683,
              "distance_from_previous_km": 4.27
            }
          ],
          "current_stop_index": 2
        },
        {
          "train_id": "REG_2553",
          "train_type": "regional",
          "current_station": null,
          "next_station": "BISUSCHIO VIGGIU",
          "current_edge": "VOGHERA--PAVIA",
          "position_km": 5.3999999999999995,
          "speed_kmh": 20,
          "delay_sec": 118,
          "status": "en_route",
          "lat": 45.88224569711539,
          "lon": 8.892040870192307,
          "route": [
            {
              "station_name": "PORTO CERESIO",
              "station_order": 1,
              "lat": 45.903675,
              "lon": 8.900357,
              "distance_from_previous_km": 4.18
            },
            {
              "station_name": "BISUSCHIO VIGGIU",
              "station_order": 2,
              "lat": 45.870658,
              "lon": 8.887544,
              "distance_from_previous_km": 8.32
            },
            {
              "station_name": "ARCISATE",
              "station_order": 3,
              "lat": 45.858579,
              "lon": 8.86241,
              "distance_from_previous_km": 10.82
            },
            {
              "station_name": "INDUNO OLONA",
              "station_order": 4,
              "lat": 45.846432,
              "lon": 8.838357,
              "distance_from_previous_km": 3.91
            },
            {
              "station_name": "VARESE",
              "station_order": 5,
              "lat": 45.816201,
              "lon": 8.833089,
              "distance_from_previous_km": 12.46
            },
            {
              "station_name": "GALLARATE",
              "station_order": 6,
              "lat": 45.659828,
              "lon": 8.798243,
              "distance_from_previous_km": 0.76
            },
            {
              "station_name": "BUSTO ARSIZIO",
              "station_order": 7,
              "lat": 45.616164,
              "lon": 8.865031,
              "distance_from_previous_km": 0.57
            },
            {
              "station_name": "LEGNANO",
              "station_order": 8,
              "lat": 45.593653,
              "lon": 8.910638,
              "distance_from_previous_km": 1.43
            },
            {
              "station_name": "RHO FIERA MILANO",
              "station_order": 9,
              "lat": 45.521157,
              "lon": 9.088595,
              "distance_from_previous_km": 23.11
            },
            {
              "station_name": "MILANO PORTA GARIBALDI",
              "station_order": 10,
              "lat": 45.484917,
              "lon": 9.187683,
              "distance_from_previous_km": 7.97
            }
          ],
          "current_stop_index": 0
        }
      ],
      "network_context": {},
      "status": "unresolved"
    },
    {
      "metadata": {
        "conflict_id": "37a001a3-1ee9-49cc-b9b7-eadf48e42b83",
        "timestamp": "2026-01-29T22:42:56.092082",
        "tick_number": 29,
        "simulation_time": "2026-01-29T06:29:00.886848"
      },
      "conflict": {
        "type": "edge_capacity_overflow",
        "severity": "medium",
        "probability": 1.0,
        "location": "VOGHERA--PAVIA",
        "location_type": "edge",
        "explanation": "ðŸš¨ EDGE OVERLOAD at VOGHERA--PAVIA | Trains involved: IC_1539, FR_9752, REG_10207 (+1 more) | Edge VOGHERA--PAVIA has 4 trains but capacity is 3. Overflow ratio: 1.3x",
        "resolution_suggestions": [
          "Hold trains at previous station",
          "Reroute via alternative track",
          "Reduce speed to create spacing"
        ]
      },
      "affected_trains": [
        {
          "train_id": "IC_1539",
          "train_type": "intercity",
          "current_station": null,
          "next_station": "PAVIA",
          "current_edge": "VOGHERA--PAVIA",
          "position_km": 20.0,
          "speed_kmh": 120,
          "delay_sec": 0,
          "status": "en_route",
          "lat": 45.15834033613445,
          "lon": 9.122842840336135,
          "route": [
            {
              "station_name": "VOGHERA",
              "station_order": 3,
              "lat": 44.9978,
              "lon": 9.007942,
              "distance_from_previous_km": 64.82
            },
            {
              "station_name": "PAVIA",
              "station_order": 4,
              "lat": 45.188843,
              "lon": 9.144674,
              "distance_from_previous_km": 23.8
            },
            {
              "station_name": "MILANO CENTRALE",
              "station_order": 5,
              "lat": 45.486347,
              "lon": 9.204528,
              "distance_from_previous_km": 33.4
            }
          ],
          "current_stop_index": 0
        },
        {
          "train_id": "FR_9752",
          "train_type": "high_speed",
          "current_station": null,
          "next_station": "MILANO CENTRALE",
          "current_edge": "VOGHERA--PAVIA",
          "position_km": 4.133333333333335,
          "speed_kmh": 20,
          "delay_sec": 0,
          "status": "en_route",
          "lat": 45.529908704829445,
          "lon": 10.160046338399189,
          "route": [
            {
              "station_name": "BRESCIA",
              "station_order": 7,
              "lat": 45.532315,
              "lon": 10.212828,
              "distance_from_previous_km": 42.1
            },
            {
              "station_name": "MILANO CENTRALE",
              "station_order": 8,
              "lat": 45.486347,
              "lon": 9.204528,
              "distance_from_previous_km": 78.96
            }
          ],
          "current_stop_index": 0
        },
        {
          "train_id": "REG_10207",
          "train_type": "regional",
          "current_station": null,
          "next_station": "CASORATE SEMPIONE",
          "current_edge": "VOGHERA--PAVIA",
          "position_km": 4.933333333333334,
          "speed_kmh": 20,
          "delay_sec": 0,
          "status": "en_route",
          "lat": 45.68261718989349,
          "lon": 8.723375146838885,
          "route": [
            {
              "station_name": "SESTO CALENDE",
              "station_order": 14,
              "lat": 45.726241,
              "lon": 8.628135,
              "distance_from_previous_km": 9.98
            },
            {
              "station_name": "VERGIATE",
              "station_order": 15,
              "lat": 45.717119,
              "lon": 8.693187,
              "distance_from_previous_km": 6.39
            },
            {
              "station_name": "SOMMA LOMBARDO",
              "station_order": 16,
              "lat": 45.686423,
              "lon": 8.712991,
              "distance_from_previous_km": 9.87
            },
            {
              "station_name": "CASORATE SEMPIONE",
              "station_order": 17,
              "lat": 45.675075,
              "lon": 8.743954,
              "distance_from_previous_km": 14.71
            },
            {
              "station_name": "GALLARATE",
              "station_order": 18,
              "lat": 45.659828,
              "lon": 8.798243,
              "distance_from_previous_km": 6.37
            },
            {
              "station_name": "BUSTO ARSIZIO",
              "station_order": 19,
              "lat": 45.616164,
              "lon": 8.865031,
              "distance_from_previous_km": 3.06
            },
            {
              "station_name": "RHO FIERA MILANO",
              "station_order": 20,
              "lat": 45.521157,
              "lon": 9.088595,
              "distance_from_previous_km": 3.56
            },
            {
              "station_name": "MILANO PORTA GARIBALDI",
              "station_order": 21,
              "lat": 45.484917,
              "lon": 9.187683,
              "distance_from_previous_km": 4.27
            }
          ],
          "current_stop_index": 2
        },
        {
          "train_id": "REG_2553",
          "train_type": "regional",
          "current_station": null,
          "next_station": "BISUSCHIO VIGGIU",
          "current_edge": "VOGHERA--PAVIA",
          "position_km": 5.7333333333333325,
          "speed_kmh": 20,
          "delay_sec": 118,
          "status": "en_route",
          "lat": 45.880922900641025,
          "lon": 8.891527528846154,
          "route": [
            {
              "station_name": "PORTO CERESIO",
              "station_order": 1,
              "lat": 45.903675,
              "lon": 8.900357,
              "distance_from_previous_km": 4.18
            },
            {
              "station_name": "BISUSCHIO VIGGIU",
              "station_order": 2,
              "lat": 45.870658,
              "lon": 8.887544,
              "distance_from_previous_km": 8.32
            },
            {
              "station_name": "ARCISATE",
              "station_order": 3,
              "lat": 45.858579,
              "lon": 8.86241,
              "distance_from_previous_km": 10.82
            },
            {
              "station_name": "INDUNO OLONA",
              "station_order": 4,
              "lat": 45.846432,
              "lon": 8.838357,
              "distance_from_previous_km": 3.91
            },
            {
              "station_name": "VARESE",
              "station_order": 5,
              "lat": 45.816201,
              "lon": 8.833089,
              "distance_from_previous_km": 12.46
            },
            {
              "station_name": "GALLARATE",
              "station_order": 6,
              "lat": 45.659828,
              "lon": 8.798243,
              "distance_from_previous_km": 0.76
            },
            {
              "station_name": "BUSTO ARSIZIO",
              "station_order": 7,
              "lat": 45.616164,
              "lon": 8.865031,
              "distance_from_previous_km": 0.57
            },
            {
              "station_name": "LEGNANO",
              "station_order": 8,
              "lat": 45.593653,
              "lon": 8.910638,
              "distance_from_previous_km": 1.43
            },
            {
              "station_name": "RHO FIERA MILANO",
              "station_order": 9,
              "lat": 45.521157,
              "lon": 9.088595,
              "distance_from_previous_km": 23.11
            },
            {
              "station_name": "MILANO PORTA GARIBALDI",
              "station_order": 10,
              "lat": 45.484917,
              "lon": 9.187683,
              "distance_from_previous_km": 7.97
            }
          ],
          "current_stop_index": 0
        }
      ],
      "network_context": {},
      "status": "unresolved"
    },
    {
      "metadata": {
        "conflict_id": "6b14f67d-aa69-4ff2-9ab3-32614873154c",
        "timestamp": "2026-01-29T22:42:58.079500",
        "tick_number": 30,
        "simulation_time": "2026-01-29T06:30:00.886848"
      },
      "conflict": {
        "type": "edge_capacity_overflow",
        "severity": "medium",
        "probability": 1.0,
        "location": "VOGHERA--PAVIA",
        "location_type": "edge",
        "explanation": "ðŸš¨ EDGE OVERLOAD at VOGHERA--PAVIA | Trains involved: IC_1539, FR_9752, REG_10207 (+1 more) | Edge VOGHERA--PAVIA has 4 trains but capacity is 3. Overflow ratio: 1.3x",
        "resolution_suggestions": [
          "Hold trains at previous station",
          "Reroute via alternative track",
          "Reduce speed to create spacing"
        ]
      },
      "affected_trains": [
        {
          "train_id": "IC_1539",
          "train_type": "intercity",
          "current_station": null,
          "next_station": "PAVIA",
          "current_edge": "VOGHERA--PAVIA",
          "position_km": 22.0,
          "speed_kmh": 120,
          "delay_sec": 0,
          "status": "en_route",
          "lat": 45.1743943697479,
          "lon": 9.134332924369748,
          "route": [
            {
              "station_name": "VOGHERA",
              "station_order": 3,
              "lat": 44.9978,
              "lon": 9.007942,
              "distance_from_previous_km": 64.82
            },
            {
              "station_name": "PAVIA",
              "station_order": 4,
              "lat": 45.188843,
              "lon": 9.144674,
              "distance_from_previous_km": 23.8
            },
            {
              "station_name": "MILANO CENTRALE",
              "station_order": 5,
              "lat": 45.486347,
              "lon": 9.204528,
              "distance_from_previous_km": 33.4
            }
          ],
          "current_stop_index": 0
        },
        {
          "train_id": "FR_9752",
          "train_type": "high_speed",
          "current_station": null,
          "next_station": "MILANO CENTRALE",
          "current_edge": "VOGHERA--PAVIA",
          "position_km": 4.466666666666668,
          "speed_kmh": 20,
          "delay_sec": 0,
          "status": "en_route",
          "lat": 45.5297146487673,
          "lon": 10.155789752786221,
          "route": [
            {
              "station_name": "BRESCIA",
              "station_order": 7,
              "lat": 45.532315,
              "lon": 10.212828,
              "distance_from_previous_km": 42.1
            },
            {
              "station_name": "MILANO CENTRALE",
              "station_order": 8,
              "lat": 45.486347,
              "lon": 9.204528,
              "distance_from_previous_km": 78.96
            }
          ],
          "current_stop_index": 0
        },
        {
          "train_id": "REG_10207",
          "train_type": "regional",
          "current_station": null,
          "next_station": "CASORATE SEMPIONE",
          "current_edge": "VOGHERA--PAVIA",
          "position_km": 5.266666666666667,
          "speed_kmh": 20,
          "delay_sec": 0,
          "status": "en_route",
          "lat": 45.682360040561974,
          "lon": 8.724076778382054,
          "route": [
            {
              "station_name": "SESTO CALENDE",
              "station_order": 14,
              "lat": 45.726241,
              "lon": 8.628135,
              "distance_from_previous_km": 9.98
            },
            {
              "station_name": "VERGIATE",
              "station_order": 15,
              "lat": 45.717119,
              "lon": 8.693187,
              "distance_from_previous_km": 6.39
            },
            {
              "station_name": "SOMMA LOMBARDO",
              "station_order": 16,
              "lat": 45.686423,
              "lon": 8.712991,
              "distance_from_previous_km": 9.87
            },
            {
              "station_name": "CASORATE SEMPIONE",
              "station_order": 17,
              "lat": 45.675075,
              "lon": 8.743954,
              "distance_from_previous_km": 14.71
            },
            {
              "station_name": "GALLARATE",
              "station_order": 18,
              "lat": 45.659828,
              "lon": 8.798243,
              "distance_from_previous_km": 6.37
            },
            {
              "station_name": "BUSTO ARSIZIO",
              "station_order": 19,
              "lat": 45.616164,
              "lon": 8.865031,
              "distance_from_previous_km": 3.06
            },
            {
              "station_name": "RHO FIERA MILANO",
              "station_order": 20,
              "lat": 45.521157,
              "lon": 9.088595,
              "distance_from_previous_km": 3.56
            },
            {
              "station_name": "MILANO PORTA GARIBALDI",
              "station_order": 21,
              "lat": 45.484917,
              "lon": 9.187683,
              "distance_from_previous_km": 4.27
            }
          ],
          "current_stop_index": 2
        },
        {
          "train_id": "REG_2553",
          "train_type": "regional",
          "current_station": null,
          "next_station": "BISUSCHIO VIGGIU",
          "current_edge": "VOGHERA--PAVIA",
          "position_km": 6.0666666666666655,
          "speed_kmh": 20,
          "delay_sec": 118,
          "status": "en_route",
          "lat": 45.87960010416666,
          "lon": 8.8910141875,
          "route": [
            {
              "station_name": "PORTO CERESIO",
              "station_order": 1,
              "lat": 45.903675,
              "lon": 8.900357,
              "distance_from_previous_km": 4.18
            },
            {
              "station_name": "BISUSCHIO VIGGIU",
              "station_order": 2,
              "lat": 45.870658,
              "lon": 8.887544,
              "distance_from_previous_km": 8.32
            },
            {
              "station_name": "ARCISATE",
              "station_order": 3,
              "lat": 45.858579,
              "lon": 8.86241,
              "distance_from_previous_km": 10.82
            },
            {
              "station_name": "INDUNO OLONA",
              "station_order": 4,
              "lat": 45.846432,
              "lon": 8.838357,
              "distance_from_previous_km": 3.91
            },
            {
              "station_name": "VARESE",
              "station_order": 5,
              "lat": 45.816201,
              "lon": 8.833089,
              "distance_from_previous_km": 12.46
            },
            {
              "station_name": "GALLARATE",
              "station_order": 6,
              "lat": 45.659828,
              "lon": 8.798243,
              "distance_from_previous_km": 0.76
            },
            {
              "station_name": "BUSTO ARSIZIO",
              "station_order": 7,
              "lat": 45.616164,
              "lon": 8.865031,
              "distance_from_previous_km": 0.57
            },
            {
              "station_name": "LEGNANO",
              "station_order": 8,
              "lat": 45.593653,
              "lon": 8.910638,
              "distance_from_previous_km": 1.43
            },
            {
              "station_name": "RHO FIERA MILANO",
              "station_order": 9,
              "lat": 45.521157,
              "lon": 9.088595,
              "distance_from_previous_km": 23.11
            },
            {
              "station_name": "MILANO PORTA GARIBALDI",
              "station_order": 10,
              "lat": 45.484917,
              "lon": 9.187683,
              "distance_from_previous_km": 7.97
            }
          ],
          "current_stop_index": 0
        }
      ],
      "network_context": {},
      "status": "unresolved"
    },
    {
      "metadata": {
        "conflict_id": "TF-20260129224331",
        "timestamp": "2026-01-29T06:50:00.886848",
        "tick_number": 50,
        "simulation_time": "2026-01-29T06:50:00.886848"
      },
      "conflict": {
        "type": "track_fault",
        "severity": "critical",
        "probability": 0.86,
        "location": "MILANO LAMBRATE--TREVIGLIO",
        "location_type": "edge",
        "explanation": "ðŸ›¤ï¸ DEFECTIVE TRACK detected by Vision AI | Edge: MILANO LAMBRATE--TREVIGLIO | Confidence: 86% | Track CLOSED for 45min repair",
        "resolution_suggestions": [
          "âš ï¸ Immediate track closure required",
          "Dispatch maintenance team to MILANO LAMBRATE--TREVIGLIO",
          "Estimated repair time: 45 minutes",
          "Reroute all trains via alternate path"
        ]
      },
      "affected_trains": [],
      "network_context": {},
      "status": "unresolved"
    },
    {
      "metadata": {
        "conflict_id": "0c56b18e-9475-4e90-b956-5699c6661c4e",
        "timestamp": "2026-01-29T23:09:19.521397",
        "tick_number": 20,
        "simulation_time": "2026-01-29T06:20:00.922184"
      },
      "conflict": {
        "type": "edge_capacity_overflow",
        "severity": "medium",
        "probability": 1.0,
        "location": "VOGHERA--PAVIA",
        "location_type": "edge",
        "explanation": "ðŸš¨ EDGE OVERLOAD at VOGHERA--PAVIA | Trains involved: IC_1539, REG_2816, REG_33137 (+1 more) | Edge VOGHERA--PAVIA has 4 trains but capacity is 3. Overflow ratio: 1.3x",
        "resolution_suggestions": [
          "Hold trains at previous station",
          "Reroute via alternative track",
          "Reduce speed to create spacing"
        ]
      },
      "affected_trains": [
        {
          "train_id": "IC_1539",
          "train_type": "intercity",
          "current_station": null,
          "next_station": "PAVIA",
          "current_edge": "VOGHERA--PAVIA",
          "position_km": 22.0,
          "speed_kmh": 120,
          "delay_sec": 69,
          "status": "en_route",
          "lat": 45.1743943697479,
          "lon": 9.134332924369748,
          "route": [
            {
              "station_name": "VOGHERA",
              "station_order": 3,
              "lat": 44.9978,
              "lon": 9.007942,
              "distance_from_previous_km": 64.82
            },
            {
              "station_name": "PAVIA",
              "station_order": 4,
              "lat": 45.188843,
              "lon": 9.144674,
              "distance_from_previous_km": 23.8
            },
            {
              "station_name": "MILANO CENTRALE",
              "station_order": 5,
              "lat": 45.486347,
              "lon": 9.204528,
              "distance_from_previous_km": 33.4
            }
          ],
          "current_stop_index": 0
        },
        {
          "train_id": "REG_2816",
          "train_type": "regional",
          "current_station": null,
          "next_station": "MILANO CENTRALE",
          "current_edge": "VOGHERA--PAVIA",
          "position_km": 21.133333333333333,
          "speed_kmh": 20,
          "delay_sec": 0,
          "status": "en_route",
          "lat": 45.486347,
          "lon": 9.204528,
          "route": [
            {
              "station_name": "MILANO CENTRALE",
              "station_order": 1,
              "lat": 45.486347,
              "lon": 9.204528,
              "distance_from_previous_km": 6.05
            },
            {
              "station_name": "MILANO CENTRALE",
              "station_order": 1,
              "lat": 45.486347,
              "lon": 9.204528,
              "distance_from_previous_km": 3.06
            },
            {
              "station_name": "MILANO CENTRALE",
              "station_order": 1,
              "lat": 45.486347,
              "lon": 9.204528,
              "distance_from_previous_km": 0.0
            },
            {
              "station_name": "MILANO CENTRALE",
              "station_order": 1,
              "lat": 45.486347,
              "lon": 9.204528,
              "distance_from_previous_km": 0.0
            },
            {
              "station_name": "MONZA",
              "station_order": 2,
              "lat": 45.577789,
              "lon": 9.273253,
              "distance_from_previous_km": 3.33
            },
            {
              "station_name": "MONZA",
              "station_order": 2,
              "lat": 45.577789,
              "lon": 9.273253,
              "distance_from_previous_km": 2.45
            },
            {
              "station_name": "MONZA",
              "station_order": 2,
              "lat": 45.577789,
              "lon": 9.273253,
              "distance_from_previous_km": 11.934
            },
            {
              "station_name": "MONZA",
              "station_order": 2,
              "lat": 45.577789,
              "lon": 9.273253,
              "distance_from_previous_km": 11.934
            },
            {
              "station_name": "LECCO",
              "station_order": 3,
              "lat": 45.856471,
              "lon": 9.393638,
              "distance_from_previous_km": 3.03
            },
            {
              "station_name": "LECCO",
              "station_order": 3,
              "lat": 45.856471,
              "lon": 9.393638,
              "distance_from_previous_km": 3.28
            },
            {
              "station_name": "LECCO",
              "station_order": 3,
              "lat": 45.856471,
              "lon": 9.393638,
              "distance_from_previous_km": 36.794
            },
            {
              "station_name": "LECCO",
              "station_order": 3,
              "lat": 45.856471,
              "lon": 9.393638,
              "distance_from_previous_km": 36.794
            },
            {
              "station_name": "MANDELLO DEL LARIO",
              "station_order": 4,
              "lat": 45.915208,
              "lon": 9.322061,
              "distance_from_previous_km": 2.82
            },
            {
              "station_name": "MANDELLO DEL LARIO",
              "station_order": 4,
              "lat": 45.915208,
              "lon": 9.322061,
              "distance_from_previous_km": 9.441
            },
            {
              "station_name": "MANDELLO DEL LARIO",
              "station_order": 4,
              "lat": 45.915208,
              "lon": 9.322061,
              "distance_from_previous_km": 9.441
            },
            {
              "station_name": "VARENNA ESINO",
              "station_order": 5,
              "lat": 46.015,
              "lon": 9.286405,
              "distance_from_previous_km": 4.74
            },
            {
              "station_name": "VARENNA ESINO",
              "station_order": 5,
              "lat": 46.015,
              "lon": 9.286405,
              "distance_from_previous_km": 12.148
            },
            {
              "station_name": "VARENNA ESINO",
              "station_order": 5,
              "lat": 46.015,
              "lon": 9.286405,
              "distance_from_previous_km": 12.148
            },
            {
              "station_name": "BELLANO TARTAVELLE TERME",
              "station_order": 6,
              "lat": 46.039448,
              "lon": 9.302776,
              "distance_from_previous_km": 1.37
            },
            {
              "station_name": "BELLANO TARTAVELLE TERME",
              "station_order": 6,
              "lat": 46.039448,
              "lon": 9.302776,
              "distance_from_previous_km": 3.258
            },
            {
              "station_name": "BELLANO TARTAVELLE TERME",
              "station_order": 6,
              "lat": 46.039448,
              "lon": 9.302776,
              "distance_from_previous_km": 3.258
            },
            {
              "station_name": "COLICO",
              "station_order": 7,
              "lat": 46.138019,
              "lon": 9.375222,
              "distance_from_previous_km": 1.91
            },
            {
              "station_name": "COLICO",
              "station_order": 7,
              "lat": 46.138019,
              "lon": 9.375222,
              "distance_from_previous_km": 14.132
            },
            {
              "station_name": "COLICO",
              "station_order": 7,
              "lat": 46.138019,
              "lon": 9.375222,
              "distance_from_previous_km": 14.132
            },
            {
              "station_name": "MORBEGNO",
              "station_order": 8,
              "lat": 46.136663,
              "lon": 9.568646,
              "distance_from_previous_km": 15.395
            },
            {
              "station_name": "MORBEGNO",
              "station_order": 8,
              "lat": 46.136663,
              "lon": 9.568646,
              "distance_from_previous_km": 15.395
            },
            {
              "station_name": "SONDRIO",
              "station_order": 9,
              "lat": 46.167064,
              "lon": 9.872928,
              "distance_from_previous_km": 25.07
            },
            {
              "station_name": "SONDRIO",
              "station_order": 9,
              "lat": 46.167064,
              "lon": 9.872928,
              "distance_from_previous_km": 25.07
            },
            {
              "station_name": "TRESENDA-APRICA-TEGLIO",
              "station_order": 10,
              "lat": 46.162082,
              "lon": 10.083754,
              "distance_from_previous_km": 16.889
            },
            {
              "station_name": "TIRANO",
              "station_order": 11,
              "lat": 46.21539,
              "lon": 10.166961,
              "distance_from_previous_km": 9.068
            }
          ],
          "current_stop_index": 1
        },
        {
          "train_id": "REG_33137",
          "train_type": "regional",
          "current_station": null,
          "next_station": "MORBEGNO",
          "current_edge": "VOGHERA--PAVIA",
          "position_km": 21.933333333333334,
          "speed_kmh": 20,
          "delay_sec": 0,
          "status": "en_route",
          "lat": 46.14483749111111,
          "lon": 9.650464048888889,
          "route": [
            {
              "station_name": "SONDRIO",
              "station_order": 1,
              "lat": 46.167064,
              "lon": 9.872928,
              "distance_from_previous_km": 4.14
            },
            {
              "station_name": "MORBEGNO",
              "station_order": 1,
              "lat": 46.136663,
              "lon": 9.568646,
              "distance_from_previous_km": 0.0
            },
            {
              "station_name": "MORBEGNO",
              "station_order": 2,
              "lat": 46.136663,
              "lon": 9.568646,
              "distance_from_previous_km": 7.22
            },
            {
              "station_name": "COSIO TRAONA",
              "station_order": 2,
              "lat": 46.135564,
              "lon": 9.525498,
              "distance_from_previous_km": 3.421
            },
            {
              "station_name": "COLICO",
              "station_order": 3,
              "lat": 46.138019,
              "lon": 9.375222,
              "distance_from_previous_km": 9.16
            },
            {
              "station_name": "DELEBIO",
              "station_order": 3,
              "lat": 46.13865,
              "lon": 9.461168,
              "distance_from_previous_km": 5.028
            },
            {
              "station_name": "COLICO",
              "station_order": 4,
              "lat": 46.138019,
              "lon": 9.375222,
              "distance_from_previous_km": 6.946
            }
          ],
          "current_stop_index": 0
        },
        {
          "train_id": "REG_2180",
          "train_type": "regional",
          "current_station": null,
          "next_station": "BOZZOLO",
          "current_edge": "VOGHERA--PAVIA",
          "position_km": 22.73333333333333,
          "speed_kmh": 20,
          "delay_sec": 0,
          "status": "en_route",
          "lat": 45.11972044444445,
          "lon": 10.547867422222222,
          "route": [
            {
              "station_name": "MANTOVA",
              "station_order": 1,
              "lat": 45.158746,
              "lon": 10.783165,
              "distance_from_previous_km": 53.9
            },
            {
              "station_name": "BOZZOLO",
              "station_order": 1,
              "lat": 45.107246,
              "lon": 10.472655,
              "distance_from_previous_km": 0.0
            },