{
  "file_info": {
    "description": "All detected conflicts from simulation",
    "last_updated": "2026-01-27T22:52:53.721158",
    "total_conflicts": 308,
    "unresolved_count": 308,
    "resolved_count": 0
  },
  "conflicts": [
    {
      "metadata": {
        "conflict_id": "c8ddc352-493f-49d4-94cf-cbcbc50a0592",
        "timestamp": "2026-01-27T20:39:52.035871",
        "tick_number": 96,
        "simulation_time": "2026-01-27T07:36:00.390414"
      },
      "conflict": {
        "type": "edge_capacity_overflow",
        "severity": "medium",
        "probability": 1.0,
        "location": "PAVIA--MILANO CENTRALE",
        "location_type": "edge",
        "explanation": "ðŸš¨ EDGE OVERLOAD at PAVIA--MILANO CENTRALE | Trains involved: IC_1539, FR_9752, REG_2816 (+1 more) | Edge PAVIA--MILANO CENTRALE has 4 trains but capacity is 3. Overflow ratio: 1.3x",
        "resolution_suggestions": [
          "Hold trains at previous station",
          "Reroute via alternative track",
          "Reduce speed to create spacing"
        ]
      },
      "affected_trains": [
        {
          "train_id": "IC_1539",
          "train_type": "intercity",
          "current_station": null,
          "next_station": "MILANO CENTRALE",
          "current_edge": "PAVIA--MILANO CENTRALE",
          "position_km": 0,
          "speed_kmh": 120,
          "delay_sec": 412,
          "status": "en_route",
          "lat": 45.10554,
          "lon": 8.905149,
          "route": [
            {
              "station_name": "VOGHERA",
              "station_order": 3,
              "lat": 44.9978,
              "lon": 9.007942,
              "distance_from_previous_km": 64.82
            },
            {
              "station_name": "PAVIA",
              "station_order": 4,
              "lat": 45.188843,
              "lon": 9.144674,
              "distance_from_previous_km": 23.8
            },
            {
              "station_name": "MILANO CENTRALE",
              "station_order": 5,
              "lat": 45.486347,
              "lon": 9.204528,
              "distance_from_previous_km": 33.4
            }
          ],
          "current_stop_index": 1
        },
        {
          "train_id": "FR_9752",
          "train_type": "high_speed",
          "current_station": null,
          "next_station": "MILANO CENTRALE",
          "current_edge": "PAVIA--MILANO CENTRALE",
          "position_km": 14.5,
          "speed_kmh": 120,
          "delay_sec": 712,
          "status": "en_route",
          "lat": 45.52387356129686,
          "lon": 10.027666525835865,
          "route": [
            {
              "station_name": "BRESCIA",
              "station_order": 7,
              "lat": 45.532315,
              "lon": 10.212828,
              "distance_from_previous_km": 42.1
            },
            {
              "station_name": "MILANO CENTRALE",
              "station_order": 8,
              "lat": 45.486347,
              "lon": 9.204528,
              "distance_from_previous_km": 78.96
            }
          ],
          "current_stop_index": 0
        },
        {
          "train_id": "REG_2816",
          "train_type": "regional",
          "current_station": null,
          "next_station": "MILANO CENTRALE",
          "current_edge": "PAVIA--MILANO CENTRALE",
          "position_km": 13.666666666666668,
          "speed_kmh": 80,
          "delay_sec": 492,
          "status": "en_route",
          "lat": 45.486347,
          "lon": 9.204528,
          "route": [
            {
              "station_name": "MILANO CENTRALE",
              "station_order": 1,
              "lat": 45.486347,
              "lon": 9.204528,
              "distance_from_previous_km": 6.05
            },
            {
              "station_name": "MILANO CENTRALE",
              "station_order": 1,
              "lat": 45.486347,
              "lon": 9.204528,
              "distance_from_previous_km": 3.06
            },
            {
              "station_name": "MILANO CENTRALE",
              "station_order": 1,
              "lat": 45.486347,
              "lon": 9.204528,
              "distance_from_previous_km": 0.0
            },
            {
              "station_name": "MILANO CENTRALE",
              "station_order": 1,
              "lat": 45.486347,
              "lon": 9.204528,
              "distance_from_previous_km": 0.0
            },
            {
              "station_name": "MONZA",
              "station_order": 2,
              "lat": 45.577789,
              "lon": 9.273253,
              "distance_from_previous_km": 3.33
            },
            {
              "station_name": "MONZA",
              "station_order": 2,
              "lat": 45.577789,
              "lon": 9.273253,
              "distance_from_previous_km": 2.45
            },
            {
              "station_name": "MONZA",
              "station_order": 2,
              "lat": 45.577789,
              "lon": 9.273253,
              "distance_from_previous_km": 11.934
            },
            {
              "station_name": "MONZA",
              "station_order": 2,
              "lat": 45.577789,
              "lon": 9.273253,
              "distance_from_previous_km": 11.934
            },
            {
              "station_name": "LECCO",
              "station_order": 3,
              "lat": 45.856471,
              "lon": 9.393638,
              "distance_from_previous_km": 3.03
            },
            {
              "station_name": "LECCO",
              "station_order": 3,
              "lat": 45.856471,
              "lon": 9.393638,
              "distance_from_previous_km": 3.28
            },
            {
              "station_name": "LECCO",
              "station_order": 3,
              "lat": 45.856471,
              "lon": 9.393638,
              "distance_from_previous_km": 36.794
            },
            {
              "station_name": "LECCO",
              "station_order": 3,
              "lat": 45.856471,
              "lon": 9.393638,
              "distance_from_previous_km": 36.794
            },
            {
              "station_name": "MANDELLO DEL LARIO",
              "station_order": 4,
              "lat": 45.915208,
              "lon": 9.322061,
              "distance_from_previous_km": 2.82
            },
            {
              "station_name": "MANDELLO DEL LARIO",
              "station_order": 4,
              "lat": 45.915208,
              "lon": 9.322061,
              "distance_from_previous_km": 9.441
            },
            {
              "station_name": "MANDELLO DEL LARIO",
              "station_order": 4,
              "lat": 45.915208,
              "lon": 9.322061,
              "distance_from_previous_km": 9.441
            },
            {
              "station_name": "VARENNA ESINO",
              "station_order": 5,
              "lat": 46.015,
              "lon": 9.286405,
              "distance_from_previous_km": 4.74
            },
            {
              "station_name": "VARENNA ESINO",
              "station_order": 5,
              "lat": 46.015,
              "lon": 9.286405,
              "distance_from_previous_km": 12.148
            },
            {
              "station_name": "VARENNA ESINO",
              "station_order": 5,
              "lat": 46.015,
              "lon": 9.286405,
              "distance_from_previous_km": 12.148
            },
            {
              "station_name": "BELLANO TARTAVELLE TERME",
              "station_order": 6,
              "lat": 46.039448,
              "lon": 9.302776,
              "distance_from_previous_km": 1.37
            },
            {
              "station_name": "BELLANO TARTAVELLE TERME",
              "station_order": 6,
              "lat": 46.039448,
              "lon": 9.302776,
              "distance_from_previous_km": 3.258
            },
            {
              "station_name": "BELLANO TARTAVELLE TERME",
              "station_order": 6,
              "lat": 46.039448,
              "lon": 9.302776,
              "distance_from_previous_km": 3.258
            },
            {
              "station_name": "COLICO",
              "station_order": 7,
              "lat": 46.138019,
              "lon": 9.375222,
              "distance_from_previous_km": 1.91
            },
            {
              "station_name": "COLICO",
              "station_order": 7,
              "lat": 46.138019,
              "lon": 9.375222,
              "distance_from_previous_km": 14.132
            },
            {
              "station_name": "COLICO",
              "station_order": 7,
              "lat": 46.138019,
              "lon": 9.375222,
              "distance_from_previous_km": 14.132
            },
            {
              "station_name": "MORBEGNO",
              "station_order": 8,
              "lat": 46.136663,
              "lon": 9.568646,
              "distance_from_previous_km": 15.395
            },
            {
              "station_name": "MORBEGNO",
              "station_order": 8,
              "lat": 46.136663,
              "lon": 9.568646,
              "distance_from_previous_km": 15.395
            },
            {
              "station_name": "SONDRIO",
              "station_order": 9,
              "lat": 46.167064,
              "lon": 9.872928,
              "distance_from_previous_km": 25.07
            },
            {
              "station_name": "SONDRIO",
              "station_order": 9,
              "lat": 46.167064,
              "lon": 9.872928,
              "distance_from_previous_km": 25.07
            },
            {
              "station_name": "TRESENDA-APRICA-TEGLIO",
              "station_order": 10,
              "lat": 46.162082,
              "lon": 10.083754,
              "distance_from_previous_km": 16.889
            },
            {
              "station_name": "TIRANO",
              "station_order": 11,
              "lat": 46.21539,
              "lon": 10.166961,
              "distance_from_previous_km": 9.068
            }
          ],
          "current_stop_index": 1
        },
        {
          "train_id": "REG_33137",
          "train_type": "regional",
          "current_station": null,
          "next_station": "MORBEGNO",
          "current_edge": "PAVIA--MILANO CENTRALE",
          "position_km": 14.166666666666668,
          "speed_kmh": 80,
          "delay_sec": 731,
          "status": "en_route",
          "lat": 46.152707972222224,
          "lon": 9.729239277777777,
          "route": [
            {
              "station_name": "SONDRIO",
              "station_order": 1,
              "lat": 46.167064,
              "lon": 9.872928,
              "distance_from_previous_km": 4.14
            },
            {
              "station_name": "MORBEGNO",
              "station_order": 1,
              "lat": 46.136663,
              "lon": 9.568646,
              "distance_from_previous_km": 0.0
            },
            {
              "station_name": "MORBEGNO",
              "station_order": 2,
              "lat": 46.136663,
              "lon": 9.568646,
              "distance_from_previous_km": 7.22
            },
            {
              "station_name": "COSIO TRAONA",
              "station_order": 2,
              "lat": 46.135564,
              "lon": 9.525498,
              "distance_from_previous_km": 3.421
            },
            {
              "station_name": "COLICO",
              "station_order": 3,
              "lat": 46.138019,
              "lon": 9.375222,
              "distance_from_previous_km": 9.16
            },
            {
              "station_name": "DELEBIO",
              "station_order": 3,
              "lat": 46.13865,
              "lon": 9.461168,
              "distance_from_previous_km": 5.028
            },
            {
              "station_name": "COLICO",
              "station_order": 4,
              "lat": 46.138019,
              "lon": 9.375222,
              "distance_from_previous_km": 6.946
            }
          ],
          "current_stop_index": 0
        }
      ],
      "network_context": {},
      "status": "unresolved"
    },
    {
      "metadata": {
        "conflict_id": "77f6e21f-5daf-4173-8a7a-d1c25ee4b4a5",
        "timestamp": "2026-01-27T20:39:52.152282",
        "tick_number": 98,
        "simulation_time": "2026-01-27T07:38:00.390414"
      },
      "conflict": {
        "type": "edge_capacity_overflow",
        "severity": "medium",
        "probability": 1.0,
        "location": "PAVIA--MILANO CENTRALE",
        "location_type": "edge",
        "explanation": "ðŸš¨ EDGE OVERLOAD at PAVIA--MILANO CENTRALE | Trains involved: IC_1539, FR_9752, REG_2816 (+1 more) | Edge PAVIA--MILANO CENTRALE has 4 trains but capacity is 3. Overflow ratio: 1.3x",
        "resolution_suggestions": [
          "Hold trains at previous station",
          "Reroute via alternative track",
          "Reduce speed to create spacing"
        ]
      },
      "affected_trains": [
        {
          "train_id": "IC_1539",
          "train_type": "intercity",
          "current_station": null,
          "next_station": "MILANO CENTRALE",
          "current_edge": "PAVIA--MILANO CENTRALE",
          "position_km": 4.0,
          "speed_kmh": 120,
          "delay_sec": 412,
          "status": "en_route",
          "lat": 45.22447222155689,
          "lon": 9.151842143712575,
          "route": [
            {
              "station_name": "VOGHERA",
              "station_order": 3,
              "lat": 44.9978,
              "lon": 9.007942,
              "distance_from_previous_km": 64.82
            },
            {
              "station_name": "PAVIA",
              "station_order": 4,
              "lat": 45.188843,
              "lon": 9.144674,
              "distance_from_previous_km": 23.8
            },
            {
              "station_name": "MILANO CENTRALE",
              "station_order": 5,
              "lat": 45.486347,
              "lon": 9.204528,
              "distance_from_previous_km": 33.4
            }
          ],
          "current_stop_index": 1
        },
        {
          "train_id": "FR_9752",
          "train_type": "high_speed",
          "current_station": null,
          "next_station": "MILANO CENTRALE",
          "current_edge": "PAVIA--MILANO CENTRALE",
          "position_km": 18.5,
          "speed_kmh": 120,
          "delay_sec": 712,
          "status": "en_route",
          "lat": 45.52154488855116,
          "lon": 9.976587498480242,
          "route": [
            {
              "station_name": "BRESCIA",
              "station_order": 7,
              "lat": 45.532315,
              "lon": 10.212828,
              "distance_from_previous_km": 42.1
            },
            {
              "station_name": "MILANO CENTRALE",
              "station_order": 8,
              "lat": 45.486347,
              "lon": 9.204528,
              "distance_from_previous_km": 78.96
            }
          ],
          "current_stop_index": 0
        },
        {
          "train_id": "REG_2816",
          "train_type": "regional",
          "current_station": null,
          "next_station": "MILANO CENTRALE",
          "current_edge": "PAVIA--MILANO CENTRALE",
          "position_km": 16.333333333333336,
          "speed_kmh": 80,
          "delay_sec": 492,
          "status": "en_route",
          "lat": 45.486347,
          "lon": 9.204528,
          "route": [
            {
              "station_name": "MILANO CENTRALE",
              "station_order": 1,
              "lat": 45.486347,
              "lon": 9.204528,
              "distance_from_previous_km": 6.05
            },
            {
              "station_name": "MILANO CENTRALE",
              "station_order": 1,
              "lat": 45.486347,
              "lon": 9.204528,
              "distance_from_previous_km": 3.06
            },
            {
              "station_name": "MILANO CENTRALE",
              "station_order": 1,
              "lat": 45.486347,
              "lon": 9.204528,
              "distance_from_previous_km": 0.0
            },
            {
              "station_name": "MILANO CENTRALE",
              "station_order": 1,
              "lat": 45.486347,
              "lon": 9.204528,
              "distance_from_previous_km": 0.0
            },
            {
              "station_name": "MONZA",
              "station_order": 2,
              "lat": 45.577789,
              "lon": 9.273253,
              "distance_from_previous_km": 3.33
            },
            {
              "station_name": "MONZA",
              "station_order": 2,
              "lat": 45.577789,
              "lon": 9.273253,
              "distance_from_previous_km": 2.45
            },
            {
              "station_name": "MONZA",
              "station_order": 2,
              "lat": 45.577789,
              "lon": 9.273253,
              "distance_from_previous_km": 11.934
            },
            {
              "station_name": "MONZA",
              "station_order": 2,
              "lat": 45.577789,
              "lon": 9.273253,
              "distance_from_previous_km": 11.934
            },
            {
              "station_name": "LECCO",
              "station_order": 3,
              "lat": 45.856471,
              "lon": 9.393638,
              "distance_from_previous_km": 3.03
            },
            {
              "station_name": "LECCO",
              "station_order": 3,
              "lat": 45.856471,
              "lon": 9.393638,
              "distance_from_previous_km": 3.28
            },
            {
              "station_name": "LECCO",
              "station_order": 3,
              "lat": 45.856471,
              "lon": 9.393638,
              "distance_from_previous_km": 36.794
            },
            {
              "station_name": "LECCO",
              "station_order": 3,
              "lat": 45.856471,
              "lon": 9.393638,
              "distance_from_previous_km": 36.794
            },
            {
              "station_name": "MANDELLO DEL LARIO",
              "station_order": 4,
              "lat": 45.915208,
              "lon": 9.322061,
              "distance_from_previous_km": 2.82
            },
            {
              "station_name": "MANDELLO DEL LARIO",
              "station_order": 4,
              "lat": 45.915208,
              "lon": 9.322061,
              "distance_from_previous_km": 9.441
            },
            {
              "station_name": "MANDELLO DEL LARIO",
              "station_order": 4,
              "lat": 45.915208,
              "lon": 9.322061,
              "distance_from_previous_km": 9.441
            },
            {
              "station_name": "VARENNA ESINO",
              "station_order": 5,
              "lat": 46.015,
              "lon": 9.286405,
              "distance_from_previous_km": 4.74
            },
            {
              "station_name": "VARENNA ESINO",
              "station_order": 5,
              "lat": 46.015,
              "lon": 9.286405,
              "distance_from_previous_km": 12.148
            },
            {
              "station_name": "VARENNA ESINO",
              "station_order": 5,
              "lat": 46.015,
              "lon": 9.286405,
              "distance_from_previous_km": 12.148
            },
            {
              "station_name": "BELLANO TARTAVELLE TERME",
              "station_order": 6,
              "lat": 46.039448,
              "lon": 9.302776,
              "distance_from_previous_km": 1.37
            },
            {
              "station_name": "BELLANO TARTAVELLE TERME",
              "station_order": 6,
              "lat": 46.039448,
              "lon": 9.302776,
              "distance_from_previous_km": 3.258
            },
            {
              "station_name": "BELLANO TARTAVELLE TERME",
              "station_order": 6,
              "lat": 46.039448,
              "lon": 9.302776,
              "distance_from_previous_km": 3.258
            },
            {
              "station_name": "COLICO",
              "station_order": 7,
              "lat": 46.138019,
              "lon": 9.375222,
              "distance_from_previous_km": 1.91
            },
            {
              "station_name": "COLICO",
              "station_order": 7,
              "lat": 46.138019,
              "lon": 9.375222,
              "distance_from_previous_km": 14.132
            },
            {
              "station_name": "COLICO",
              "station_order": 7,
              "lat": 46.138019,
              "lon": 9.375222,
              "distance_from_previous_km": 14.132
            },
            {
              "station_name": "MORBEGNO",
              "station_order": 8,
              "lat": 46.136663,
              "lon": 9.568646,
              "distance_from_previous_km": 15.395
            },
            {
              "station_name": "MORBEGNO",
              "station_order": 8,
              "lat": 46.136663,
              "lon": 9.568646,
              "distance_from_previous_km": 15.395
            },
            {
              "station_name": "SONDRIO",
              "station_order": 9,
              "lat": 46.167064,
              "lon": 9.872928,
              "distance_from_previous_km": 25.07
            },
            {
              "station_name": "SONDRIO",
              "station_order": 9,
              "lat": 46.167064,
              "lon": 9.872928,
              "distance_from_previous_km": 25.07
            },
            {
              "station_name": "TRESENDA-APRICA-TEGLIO",
              "station_order": 10,
              "lat": 46.162082,
              "lon": 10.083754,
              "distance_from_previous_km": 16.889
            },
            {
              "station_name": "TIRANO",
              "station_order": 11,
              "lat": 46.21539,
              "lon": 10.166961,
              "distance_from_previous_km": 9.068
            }
          ],
          "current_stop_index": 1
        },
        {
          "train_id": "REG_33137",
          "train_type": "regional",
          "current_station": null,
          "next_station": "MORBEGNO",
          "current_edge": "PAVIA--MILANO CENTRALE",
          "position_km": 15.500000000000002,
          "speed_kmh": 80,
          "delay_sec": 837,
          "status": "delayed",
          "lat": 46.15135681666667,
          "lon": 9.715715633333334,
          "route": [
            {
              "station_name": "SONDRIO",
              "station_order": 1,
              "lat": 46.167064,
              "lon": 9.872928,
              "distance_from_previous_km": 4.14
            },
            {
              "station_name": "MORBEGNO",
              "station_order": 1,
              "lat": 46.136663,
              "lon": 9.568646,
              "distance_from_previous_km": 0.0
            },
            {
              "station_name": "MORBEGNO",
              "station_order": 2,
              "lat": 46.136663,
              "lon": 9.568646,
              "distance_from_previous_km": 7.22
            },
            {
              "station_name": "COSIO TRAONA",
              "station_order": 2,
              "lat": 46.135564,
              "lon": 9.525498,
              "distance_from_previous_km": 3.421
            },
            {
              "station_name": "COLICO",
              "station_order": 3,
              "lat": 46.138019,
              "lon": 9.375222,
              "distance_from_previous_km": 9.16
            },
            {
              "station_name": "DELEBIO",
              "station_order": 3,
              "lat": 46.13865,
              "lon": 9.461168,
              "distance_from_previous_km": 5.028
            },
            {
              "station_name": "COLICO",
              "station_order": 4,
              "lat": 46.138019,
              "lon": 9.375222,
              "distance_from_previous_km": 6.946
            }
          ],
          "current_stop_index": 0
        }
      ],
      "network_context": {},
      "status": "unresolved"
    },
    {
      "metadata": {
        "conflict_id": "298de3c5-a61f-4a87-a2fd-c7fe6952cdf8",
        "timestamp": "2026-01-27T20:39:52.519790",
        "tick_number": 99,
        "simulation_time": "2026-01-27T07:39:00.390414"
      },
      "conflict": {
        "type": "edge_capacity_overflow",
        "severity": "medium",
        "probability": 1.0,
        "location": "PAVIA--MILANO CENTRALE",
        "location_type": "edge",
        "explanation": "ðŸš¨ EDGE OVERLOAD at PAVIA--MILANO CENTRALE | Trains involved: IC_1539, FR_9752, REG_2816 (+1 more) | Edge PAVIA--MILANO CENTRALE has 4 trains but capacity is 3. Overflow ratio: 1.3x",
        "resolution_suggestions": [
          "Hold trains at previous station",
          "Reroute via alternative track",
          "Reduce speed to create spacing"
        ]
      },
      "affected_trains": [
        {
          "train_id": "IC_1539",
          "train_type": "intercity",
          "current_station": null,
          "next_station": "MILANO CENTRALE",
          "current_edge": "PAVIA--MILANO CENTRALE",
          "position_km": 6.0,
          "speed_kmh": 120,
          "delay_sec": 412,
          "status": "en_route",
          "lat": 45.24228683233533,
          "lon": 9.155426215568863,
          "route": [
            {
              "station_name": "VOGHERA",
              "station_order": 3,
              "lat": 44.9978,
              "lon": 9.007942,
              "distance_from_previous_km": 64.82
            },
            {
              "station_name": "PAVIA",
              "station_order": 4,
              "lat": 45.188843,
              "lon": 9.144674,
              "distance_from_previous_km": 23.8
            },
            {
              "station_name": "MILANO CENTRALE",
              "station_order": 5,
              "lat": 45.486347,
              "lon": 9.204528,
              "distance_from_previous_km": 33.4
            }
          ],
          "current_stop_index": 1
        },
        {
          "train_id": "FR_9752",
          "train_type": "high_speed",
          "current_station": null,
          "next_station": "MILANO CENTRALE",
          "current_edge": "PAVIA--MILANO CENTRALE",
          "position_km": 20.5,
          "speed_kmh": 120,
          "delay_sec": 712,
          "status": "en_route",
          "lat": 45.52038055217832,
          "lon": 9.951047984802432,
          "route": [
            {
              "station_name": "BRESCIA",
              "station_order": 7,
              "lat": 45.532315,
              "lon": 10.212828,
              "distance_from_previous_km": 42.1
            },
            {
              "station_name": "MILANO CENTRALE",
              "station_order": 8,
              "lat": 45.486347,
              "lon": 9.204528,
              "distance_from_previous_km": 78.96
            }
          ],
          "current_stop_index": 0
        },
        {
          "train_id": "REG_2816",
          "train_type": "regional",
          "current_station": null,
          "next_station": "MILANO CENTRALE",
          "current_edge": "PAVIA--MILANO CENTRALE",
          "position_km": 17.666666666666668,
          "speed_kmh": 80,
          "delay_sec": 492,
          "status": "en_route",
          "lat": 45.486347,
          "lon": 9.204528,
          "route": [
            {
              "station_name": "MILANO CENTRALE",
              "station_order": 1,
              "lat": 45.486347,
              "lon": 9.204528,
              "distance_from_previous_km": 6.05
            },
            {
              "station_name": "MILANO CENTRALE",
              "station_order": 1,
              "lat": 45.486347,
              "lon": 9.204528,
              "distance_from_previous_km": 3.06
            },
            {
              "station_name": "MILANO CENTRALE",
              "station_order": 1,
              "lat": 45.486347,
              "lon": 9.204528,
              "distance_from_previous_km": 0.0
            },
            {
              "station_name": "MILANO CENTRALE",
              "station_order": 1,
              "lat": 45.486347,
              "lon": 9.204528,
              "distance_from_previous_km": 0.0
            },
            {
              "station_name": "MONZA",
              "station_order": 2,
              "lat": 45.577789,
              "lon": 9.273253,
              "distance_from_previous_km": 3.33
            },
            {
              "station_name": "MONZA",
              "station_order": 2,
              "lat": 45.577789,
              "lon": 9.273253,
              "distance_from_previous_km": 2.45
            },
            {
              "station_name": "MONZA",
              "station_order": 2,
              "lat": 45.577789,
              "lon": 9.273253,
              "distance_from_previous_km": 11.934
            },
            {
              "station_name": "MONZA",
              "station_order": 2,
              "lat": 45.577789,
              "lon": 9.273253,
              "distance_from_previous_km": 11.934
            },
            {
              "station_name": "LECCO",
              "station_order": 3,
              "lat": 45.856471,
              "lon": 9.393638,
              "distance_from_previous_km": 3.03
            },
            {
              "station_name": "LECCO",
              "station_order": 3,
              "lat": 45.856471,
              "lon": 9.393638,
              "distance_from_previous_km": 3.28
            },
            {
              "station_name": "LECCO",
              "station_order": 3,
              "lat": 45.856471,
              "lon": 9.393638,
              "distance_from_previous_km": 36.794
            },
            {
              "station_name": "LECCO",
              "station_order": 3,
              "lat": 45.856471,
              "lon": 9.393638,
              "distance_from_previous_km": 36.794
            },
            {
              "station_name": "MANDELLO DEL LARIO",
              "station_order": 4,
              "lat": 45.915208,
              "lon": 9.322061,
              "distance_from_previous_km": 2.82
            },
            {
              "station_name": "MANDELLO DEL LARIO",
              "station_order": 4,
              "lat": 45.915208,
              "lon": 9.322061,
              "distance_from_previous_km": 9.441
            },
            {
              "station_name": "MANDELLO DEL LARIO",
              "station_order": 4,
              "lat": 45.915208,
              "lon": 9.322061,
              "distance_from_previous_km": 9.441
            },
            {
              "station_name": "VARENNA ESINO",
              "station_order": 5,
              "lat": 46.015,
              "lon": 9.286405,
              "distance_from_previous_km": 4.74
            },
            {
              "station_name": "VARENNA ESINO",
              "station_order": 5,
              "lat": 46.015,
              "lon": 9.286405,
              "distance_from_previous_km": 12.148
            },
            {
              "station_name": "VARENNA ESINO",
              "station_order": 5,
              "lat": 46.015,
              "lon": 9.286405,
              "distance_from_previous_km": 12.148
            },
            {
              "station_name": "BELLANO TARTAVELLE TERME",
              "station_order": 6,
              "lat": 46.039448,
              "lon": 9.302776,
              "distance_from_previous_km": 1.37
            },
            {
              "station_name": "BELLANO TARTAVELLE TERME",
              "station_order": 6,
              "lat": 46.039448,
              "lon": 9.302776,
              "distance_from_previous_km": 3.258
            },
            {
              "station_name": "BELLANO TARTAVELLE TERME",
              "station_order": 6,
              "lat": 46.039448,
              "lon": 9.302776,
              "distance_from_previous_km": 3.258
            },
            {
              "station_name": "COLICO",
              "station_order": 7,
              "lat": 46.138019,
              "lon": 9.375222,
              "distance_from_previous_km": 1.91
            },
            {
              "station_name": "COLICO",
              "station_order": 7,
              "lat": 46.138019,
              "lon": 9.375222,
              "distance_from_previous_km": 14.132
            },
            {
              "station_name": "COLICO",
              "station_order": 7,
              "lat": 46.138019,
              "lon": 9.375222,
              "distance_from_previous_km": 14.132
            },
            {
              "station_name": "MORBEGNO",
              "station_order": 8,
              "lat": 46.136663,
              "lon": 9.568646,
              "distance_from_previous_km": 15.395
            },
            {
              "station_name": "MORBEGNO",
              "station_order": 8,
              "lat": 46.136663,
              "lon": 9.568646,
              "distance_from_previous_km": 15.395
            },
            {
              "station_name": "SONDRIO",
              "station_order": 9,
              "lat": 46.167064,
              "lon": 9.872928,
              "distance_from_previous_km": 25.07
            },
            {
              "station_name": "SONDRIO",
              "station_order": 9,
              "lat": 46.167064,
              "lon": 9.872928,
              "distance_from_previous_km": 25.07
            },
            {
              "station_name": "TRESENDA-APRICA-TEGLIO",
              "station_order": 10,
              "lat": 46.162082,
              "lon": 10.083754,
              "distance_from_previous_km": 16.889
            },
            {
              "station_name": "TIRANO",
              "station_order": 11,
              "lat": 46.21539,
              "lon": 10.166961,
              "distance_from_previous_km": 9.068
            }
          ],
          "current_stop_index": 1
        },
        {
          "train_id": "REG_33137",
          "train_type": "regional",
          "current_station": null,
          "next_station": "MORBEGNO",
          "current_edge": "PAVIA--MILANO CENTRALE",
          "position_km": 15.500000000000002,
          "speed_kmh": 80,
          "delay_sec": 837,
          "status": "delayed",
          "lat": 46.15135681666667,
          "lon": 9.715715633333334,
          "route": [
            {
              "station_name": "SONDRIO",
              "station_order": 1,
              "lat": 46.167064,
              "lon": 9.872928,
              "distance_from_previous_km": 4.14
            },
            {
              "station_name": "MORBEGNO",
              "station_order": 1,
              "lat": 46.136663,
              "lon": 9.568646,
              "distance_from_previous_km": 0.0
            },
            {
              "station_name": "MORBEGNO",
              "station_order": 2,
              "lat": 46.136663,
              "lon": 9.568646,
              "distance_from_previous_km": 7.22
            },
            {
              "station_name": "COSIO TRAONA",
              "station_order": 2,
              "lat": 46.135564,
              "lon": 9.525498,
              "distance_from_previous_km": 3.421
            },
            {
              "station_name": "COLICO",
              "station_order": 3,
              "lat": 46.138019,
              "lon": 9.375222,
              "distance_from_previous_km": 9.16
            },
            {
              "station_name": "DELEBIO",
              "station_order": 3,
              "lat": 46.13865,
              "lon": 9.461168,
              "distance_from_previous_km": 5.028
            },
            {
              "station_name": "COLICO",
              "station_order": 4,
              "lat": 46.138019,
              "lon": 9.375222,
              "distance_from_previous_km": 6.946
            }
          ],
          "current_stop_index": 0
        }
      ],
      "network_context": {},
      "status": "unresolved"
    },
    {
      "metadata": {
        "conflict_id": "9ae5dbef-2b7f-4e21-ad50-e6d16e059ee3",
        "timestamp": "2026-01-27T20:39:53.492145",
        "tick_number": 100,
        "simulation_time": "2026-01-27T07:40:00.390414"
      },
      "conflict": {
        "type": "edge_capacity_overflow",
        "severity": "medium",
        "probability": 1.0,
        "location": "PAVIA--MILANO CENTRALE",
        "location_type": "edge",
        "explanation": "ðŸš¨ EDGE OVERLOAD at PAVIA--MILANO CENTRALE | Trains involved: IC_1539, FR_9752, REG_2816 (+1 more) | Edge PAVIA--MILANO CENTRALE has 4 trains but capacity is 3. Overflow ratio: 1.3x",
        "resolution_suggestions": [
          "Hold trains at previous station",
          "Reroute via alternative track",
          "Reduce speed to create spacing"
        ]
      },
      "affected_trains": [
        {
          "train_id": "IC_1539",
          "train_type": "intercity",
          "current_station": null,
          "next_station": "MILANO CENTRALE",
          "current_edge": "PAVIA--MILANO CENTRALE",
          "position_km": 8.0,
          "speed_kmh": 120,
          "delay_sec": 412,
          "status": "en_route",
          "lat": 45.26010144311377,
          "lon": 9.15901028742515,
          "route": [
            {
              "station_name": "VOGHERA",
              "station_order": 3,
              "lat": 44.9978,
              "lon": 9.007942,
              "distance_from_previous_km": 64.82
            },
            {
              "station_name": "PAVIA",
              "station_order": 4,
              "lat": 45.188843,
              "lon": 9.144674,
              "distance_from_previous_km": 23.8
            },
            {
              "station_name": "MILANO CENTRALE",
              "station_order": 5,
              "lat": 45.486347,
              "lon": 9.204528,
              "distance_from_previous_km": 33.4
            }
          ],
          "current_stop_index": 1
        },
        {
          "train_id": "FR_9752",
          "train_type": "high_speed",
          "current_station": null,
          "next_station": "MILANO CENTRALE",
          "current_edge": "PAVIA--MILANO CENTRALE",
          "position_km": 9.0,
          "speed_kmh": 120,
          "delay_sec": 712,
          "status": "en_route",
          "lat": 45.52707548632218,
          "lon": 10.097900188449849,
          "route": [
            {
              "station_name": "BRESCIA",
              "station_order": 7,
              "lat": 45.532315,
              "lon": 10.212828,
              "distance_from_previous_km": 42.1
            },
            {
              "station_name": "MILANO CENTRALE",
              "station_order": 8,
              "lat": 45.486347,
              "lon": 9.204528,
              "distance_from_previous_km": 78.96
            }
          ],
          "current_stop_index": 0
        },
        {
          "train_id": "REG_2816",
          "train_type": "regional",
          "current_station": null,
          "next_station": "MILANO CENTRALE",
          "current_edge": "PAVIA--MILANO CENTRALE",
          "position_km": 8.833333333333334,
          "speed_kmh": 80,
          "delay_sec": 492,
          "status": "en_route",
          "lat": 45.486347,
          "lon": 9.204528,
          "route": [
            {
              "station_name": "MILANO CENTRALE",
              "station_order": 1,
              "lat": 45.486347,
              "lon": 9.204528,
              "distance_from_previous_km": 6.05
            },
            {
              "station_name": "MILANO CENTRALE",
              "station_order": 1,
              "lat": 45.486347,
              "lon": 9.204528,
              "distance_from_previous_km": 3.06
            },
            {
              "station_name": "MILANO CENTRALE",
              "station_order": 1,
              "lat": 45.486347,
              "lon": 9.204528,
              "distance_from_previous_km": 0.0
            },
            {
              "station_name": "MILANO CENTRALE",
              "station_order": 1,
              "lat": 45.486347,
              "lon": 9.204528,
              "distance_from_previous_km": 0.0
            },
            {
              "station_name": "MONZA",
              "station_order": 2,
              "lat": 45.577789,
              "lon": 9.273253,
              "distance_from_previous_km": 3.33
            },
            {
              "station_name": "MONZA",
              "station_order": 2,
              "lat": 45.577789,
              "lon": 9.273253,
              "distance_from_previous_km": 2.45
            },
            {
              "station_name": "MONZA",
              "station_order": 2,
              "lat": 45.577789,
              "lon": 9.273253,
              "distance_from_previous_km": 11.934
            },
            {
              "station_name": "MONZA",
              "station_order": 2,
              "lat": 45.577789,
              "lon": 9.273253,
              "distance_from_previous_km": 11.934
            },
            {
              "station_name": "LECCO",
              "station_order": 3,
              "lat": 45.856471,
              "lon": 9.393638,
              "distance_from_previous_km": 3.03
            },
            {
              "station_name": "LECCO",
              "station_order": 3,
              "lat": 45.856471,
              "lon": 9.393638,
              "distance_from_previous_km": 3.28
            },
            {
              "station_name": "LECCO",
              "station_order": 3,
              "lat": 45.856471,
              "lon": 9.393638,
              "distance_from_previous_km": 36.794
            },
            {
              "station_name": "LECCO",
              "station_order": 3,
              "lat": 45.856471,
              "lon": 9.393638,
              "distance_from_previous_km": 36.794
            },
            {
              "station_name": "MANDELLO DEL LARIO",
              "station_order": 4,
              "lat": 45.915208,
              "lon": 9.322061,
              "distance_from_previous_km": 2.82
            },
            {
              "station_name": "MANDELLO DEL LARIO",
              "station_order": 4,
              "lat": 45.915208,
              "lon": 9.322061,
              "distance_from_previous_km": 9.441
            },
            {
              "station_name": "MANDELLO DEL LARIO",
              "station_order": 4,
              "lat": 45.915208,
              "lon": 9.322061,
              "distance_from_previous_km": 9.441
            },
            {
              "station_name": "VARENNA ESINO",
              "station_order": 5,
              "lat": 46.015,
              "lon": 9.286405,
              "distance_from_previous_km": 4.74
            },
            {
              "station_name": "VARENNA ESINO",
              "station_order": 5,
              "lat": 46.015,
              "lon": 9.286405,
              "distance_from_previous_km": 12.148
            },
            {
              "station_name": "VARENNA ESINO",
              "station_order": 5,
              "lat": 46.015,
              "lon": 9.286405,
              "distance_from_previous_km": 12.148
            },
            {
              "station_name": "BELLANO TARTAVELLE TERME",
              "station_order": 6,
              "lat": 46.039448,
              "lon": 9.302776,
              "distance_from_previous_km": 1.37
            },
            {
              "station_name": "BELLANO TARTAVELLE TERME",
              "station_order": 6,
              "lat": 46.039448,
              "lon": 9.302776,
              "distance_from_previous_km": 3.258
            },
            {
              "station_name": "BELLANO TARTAVELLE TERME",
              "station_order": 6,
              "lat": 46.039448,
              "lon": 9.302776,
              "distance_from_previous_km": 3.258
            },
            {
              "station_name": "COLICO",
              "station_order": 7,
              "lat": 46.138019,
              "lon": 9.375222,
              "distance_from_previous_km": 1.91
            },
            {
              "station_name": "COLICO",
              "station_order": 7,
              "lat": 46.138019,
              "lon": 9.375222,
              "distance_from_previous_km": 14.132
            },
            {
              "station_name": "COLICO",
              "station_order": 7,
              "lat": 46.138019,
              "lon": 9.375222,
              "distance_from_previous_km": 14.132
            },
            {
              "station_name": "MORBEGNO",
              "station_order": 8,
              "lat": 46.136663,
              "lon": 9.568646,
              "distance_from_previous_km": 15.395
            },
            {
              "station_name": "MORBEGNO",
              "station_order": 8,
              "lat": 46.136663,
              "lon": 9.568646,
              "distance_from_previous_km": 15.395
            },
            {
              "station_name": "SONDRIO",
              "station_order": 9,
              "lat": 46.167064,
              "lon": 9.872928,
              "distance_from_previous_km": 25.07
            },
            {
              "station_name": "SONDRIO",
              "station_order": 9,
              "lat": 46.167064,
              "lon": 9.872928,
              "distance_from_previous_km": 25.07
            },
            {
              "station_name": "TRESENDA-APRICA-TEGLIO",
              "station_order": 10,
              "lat": 46.162082,
              "lon": 10.083754,
              "distance_from_previous_km": 16.889
            },
            {
              "station_name": "TIRANO",
              "station_order": 11,
              "lat": 46.21539,
              "lon": 10.166961,
              "distance_from_previous_km": 9.068
            }
          ],
          "current_stop_index": 1
        },
        {
          "train_id": "REG_33137",
          "train_type": "regional",
          "current_station": null,
          "next_station": "MORBEGNO",
          "current_edge": "PAVIA--MILANO CENTRALE",
          "position_km": 15.500000000000002,
          "speed_kmh": 80,
          "delay_sec": 837,
          "status": "delayed",
          "lat": 46.15135681666667,
          "lon": 9.715715633333334,
          "route": [
            {
              "station_name": "SONDRIO",
              "station_order": 1,
              "lat": 46.167064,
              "lon": 9.872928,
              "distance_from_previous_km": 4.14
            },
            {
              "station_name": "MORBEGNO",
              "station_order": 1,
              "lat": 46.136663,
              "lon": 9.568646,
              "distance_from_previous_km": 0.0
            },
            {
              "station_name": "MORBEGNO",
              "station_order": 2,
              "lat": 46.136663,
              "lon": 9.568646,
              "distance_from_previous_km": 7.22
            },
            {
              "station_name": "COSIO TRAONA",
              "station_order": 2,
              "lat": 46.135564,
              "lon": 9.525498,
              "distance_from_previous_km": 3.421
            },
            {
              "station_name": "COLICO",
              "station_order": 3,
              "lat": 46.138019,
              "lon": 9.375222,
              "distance_from_previous_km": 9.16
            },
            {
              "station_name": "DELEBIO",
              "station_order": 3,
              "lat": 46.13865,
              "lon": 9.461168,
              "distance_from_previous_km": 5.028
            },
            {
              "station_name": "COLICO",
              "station_order": 4,
              "lat": 46.138019,
              "lon": 9.375222,
              "distance_from_previous_km": 6.946
            }
          ],
          "current_stop_index": 0
        }
      ],
      "network_context": {},
      "status": "unresolved"
    },
    {
      "metadata": {
        "conflict_id": "47bc369a-a77b-4343-96dc-f7a1d604db39",
        "timestamp": "2026-01-27T20:39:53.553122",
        "tick_number": 101,
        "simulation_time": "2026-01-27T07:41:00.390414"
      },
      "conflict": {
        "type": "edge_capacity_overflow",
        "severity": "medium",
        "probability": 1.0,
        "location": "PAVIA--MILANO CENTRALE",
        "location_type": "edge",
        "explanation": "ðŸš¨ EDGE OVERLOAD at PAVIA--MILANO CENTRALE | Trains involved: IC_1539, FR_9752, REG_2816 (+1 more) | Edge PAVIA--MILANO CENTRALE has 4 trains but capacity is 3. Overflow ratio: 1.3x",
        "resolution_suggestions": [
          "Hold trains at previous station",
          "Reroute via alternative track",
          "Reduce speed to create spacing"
        ]
      },
      "affected_trains": [
        {
          "train_id": "IC_1539",
          "train_type": "intercity",
          "current_station": null,
          "next_station": "MILANO CENTRALE",
          "current_edge": "PAVIA--MILANO CENTRALE",
          "position_km": 10.0,
          "speed_kmh": 120,
          "delay_sec": 412,
          "status": "en_route",
          "lat": 45.27791605389221,
          "lon": 9.162594359281437,
          "route": [
            {
              "station_name": "VOGHERA",
              "station_order": 3,
              "lat": 44.9978,
              "lon": 9.007942,
              "distance_from_previous_km": 64.82
            },
            {
              "station_name": "PAVIA",
              "station_order": 4,
              "lat": 45.188843,
              "lon": 9.144674,
              "distance_from_previous_km": 23.8
            },
            {
              "station_name": "MILANO CENTRALE",
              "station_order": 5,
              "lat": 45.486347,
              "lon": 9.204528,
              "distance_from_previous_km": 33.4
            }
          ],
          "current_stop_index": 1
        },
        {
          "train_id": "FR_9752",
          "train_type": "high_speed",
          "current_station": null,
          "next_station": "MILANO CENTRALE",
          "current_edge": "PAVIA--MILANO CENTRALE",
          "position_km": 11.0,
          "speed_kmh": 120,
          "delay_sec": 712,
          "status": "en_route",
          "lat": 45.52591114994934,
          "lon": 10.072360674772037,
          "route": [
            {
              "station_name": "BRESCIA",
              "station_order": 7,
              "lat": 45.532315,
              "lon": 10.212828,
              "distance_from_previous_km": 42.1
            },
            {
              "station_name": "MILANO CENTRALE",
              "station_order": 8,
              "lat": 45.486347,
              "lon": 9.204528,
              "distance_from_previous_km": 78.96
            }
          ],
          "current_stop_index": 0
        },
        {
          "train_id": "REG_2816",
          "train_type": "regional",
          "current_station": null,
          "next_station": "MILANO CENTRALE",
          "current_edge": "PAVIA--MILANO CENTRALE",
          "position_km": 10.166666666666668,
          "speed_kmh": 80,
          "delay_sec": 492,
          "status": "en_route",
          "lat": 45.486347,
          "lon": 9.204528,
          "route": [
            {
              "station_name": "MILANO CENTRALE",
              "station_order": 1,
              "lat": 45.486347,
              "lon": 9.204528,
              "distance_from_previous_km": 6.05
            },
            {
              "station_name": "MILANO CENTRALE",
              "station_order": 1,
              "lat": 45.486347,
              "lon": 9.204528,
              "distance_from_previous_km": 3.06
            },
            {
              "station_name": "MILANO CENTRALE",
              "station_order": 1,
              "lat": 45.486347,
              "lon": 9.204528,
              "distance_from_previous_km": 0.0
            },
            {
              "station_name": "MILANO CENTRALE",
              "station_order": 1,
              "lat": 45.486347,
              "lon": 9.204528,
              "distance_from_previous_km": 0.0
            },
            {
              "station_name": "MONZA",
              "station_order": 2,
              "lat": 45.577789,
              "lon": 9.273253,
              "distance_from_previous_km": 3.33
            },
            {
              "station_name": "MONZA",
              "station_order": 2,
              "lat": 45.577789,
              "lon": 9.273253,
              "distance_from_previous_km": 2.45
            },
            {
              "station_name": "MONZA",
              "station_order": 2,
              "lat": 45.577789,
              "lon": 9.273253,
              "distance_from_previous_km": 11.934
            },
            {
              "station_name": "MONZA",
              "station_order": 2,
              "lat": 45.577789,
              "lon": 9.273253,
              "distance_from_previous_km": 11.934
            },
            {
              "station_name": "LECCO",
              "station_order": 3,
              "lat": 45.856471,
              "lon": 9.393638,
              "distance_from_previous_km": 3.03
            },
            {
              "station_name": "LECCO",
              "station_order": 3,
              "lat": 45.856471,
              "lon": 9.393638,
              "distance_from_previous_km": 3.28
            },
            {
              "station_name": "LECCO",
              "station_order": 3,
              "lat": 45.856471,
              "lon": 9.393638,
              "distance_from_previous_km": 36.794
            },
            {
              "station_name": "LECCO",
              "station_order": 3,
              "lat": 45.856471,
              "lon": 9.393638,
              "distance_from_previous_km": 36.794
            },
            {
              "station_name": "MANDELLO DEL LARIO",
              "station_order": 4,
              "lat": 45.915208,
              "lon": 9.322061,
              "distance_from_previous_km": 2.82
            },
            {
              "station_name": "MANDELLO DEL LARIO",
              "station_order": 4,
              "lat": 45.915208,
              "lon": 9.322061,
              "distance_from_previous_km": 9.441
            },
            {
              "station_name": "MANDELLO DEL LARIO",
              "station_order": 4,
              "lat": 45.915208,
              "lon": 9.322061,
              "distance_from_previous_km": 9.441
            },
            {
              "station_name": "VARENNA ESINO",
              "station_order": 5,
              "lat": 46.015,
              "lon": 9.286405,
              "distance_from_previous_km": 4.74
            },
            {
              "station_name": "VARENNA ESINO",
              "station_order": 5,
              "lat": 46.015,
              "lon": 9.286405,
              "distance_from_previous_km": 12.148
            },
            {
              "station_name": "VARENNA ESINO",
              "station_order": 5,
              "lat": 46.015,
              "lon": 9.286405,
              "distance_from_previous_km": 12.148
            },
            {
              "station_name": "BELLANO TARTAVELLE TERME",
              "station_order": 6,
              "lat": 46.039448,
              "lon": 9.302776,
              "distance_from_previous_km": 1.37
            },
            {
              "station_name": "BELLANO TARTAVELLE TERME",
              "station_order": 6,
              "lat": 46.039448,
              "lon": 9.302776,
              "distance_from_previous_km": 3.258
            },
            {
              "station_name": "BELLANO TARTAVELLE TERME",
              "station_order": 6,
              "lat": 46.039448,
              "lon": 9.302776,
              "distance_from_previous_km": 3.258
            },
            {
              "station_name": "COLICO",
              "station_order": 7,
              "lat": 46.138019,
              "lon": 9.375222,
              "distance_from_previous_km": 1.91
            },
            {
              "station_name": "COLICO",
              "station_order": 7,
              "lat": 46.138019,
              "lon": 9.375222,
              "distance_from_previous_km": 14.132
            },
            {
              "station_name": "COLICO",
              "station_order": 7,
              "lat": 46.138019,
              "lon": 9.375222,
              "distance_from_previous_km": 14.132
            },
            {
              "station_name": "MORBEGNO",
              "station_order": 8,
              "lat": 46.136663,
              "lon": 9.568646,
              "distance_from_previous_km": 15.395
            },
            {
              "station_name": "MORBEGNO",
              "station_order": 8,
              "lat": 46.136663,
              "lon": 9.568646,
              "distance_from_previous_km": 15.395
            },
            {
              "station_name": "SONDRIO",
              "station_order": 9,
              "lat": 46.167064,
              "lon": 9.872928,
              "distance_from_previous_km": 25.07
            },
            {
              "station_name": "SONDRIO",
              "station_order": 9,
              "lat": 46.167064,
              "lon": 9.872928,
              "distance_from_previous_km": 25.07
            },
            {
              "station_name": "TRESENDA-APRICA-TEGLIO",
              "station_order": 10,
              "lat": 46.162082,
              "lon": 10.083754,
              "distance_from_previous_km": 16.889
            },
            {
              "station_name": "TIRANO",
              "station_order": 11,
              "lat": 46.21539,
              "lon": 10.166961,
              "distance_from_previous_km": 9.068
            }
          ],
          "current_stop_index": 1
        },
        {
          "train_id": "REG_33137",
          "train_type": "regional",
          "current_station": null,
          "next_station": "MORBEGNO",
          "current_edge": "PAVIA--MILANO CENTRALE",
          "position_km": 15.500000000000002,
          "speed_kmh": 80,
          "delay_sec": 837,
          "status": "delayed",
          "lat": 46.15135681666667,
          "lon": 9.715715633333334,
          "route": [
            {
              "station_name": "SONDRIO",
              "station_order": 1,
              "lat": 46.167064,
              "lon": 9.872928,
              "distance_from_previous_km": 4.14
            },
            {
              "station_name": "MORBEGNO",
              "station_order": 1,
              "lat": 46.136663,
              "lon": 9.568646,
              "distance_from_previous_km": 0.0
            },
            {
              "station_name": "MORBEGNO",
              "station_order": 2,
              "lat": 46.136663,
              "lon": 9.568646,
              "distance_from_previous_km": 7.22
            },
            {
              "station_name": "COSIO TRAONA",
              "station_order": 2,
              "lat": 46.135564,
              "lon": 9.525498,
              "distance_from_previous_km": 3.421
            },
            {
              "station_name": "COLICO",
              "station_order": 3,
              "lat": 46.138019,
              "lon": 9.375222,
              "distance_from_previous_km": 9.16
            },
            {
              "station_name": "DELEBIO",
              "station_order": 3,
              "lat": 46.13865,
              "lon": 9.461168,
              "distance_from_previous_km": 5.028
            },
            {
              "station_name": "COLICO",
              "station_order": 4,
              "lat": 46.138019,
              "lon": 9.375222,
              "distance_from_previous_km": 6.946
            }
          ],
          "current_stop_index": 0
        }
      ],
      "network_context": {},
      "status": "unresolved"
    },
    {
      "metadata": {
        "conflict_id": "1e1edd59-a404-4003-8629-d262020ce3f7",
        "timestamp": "2026-01-27T20:39:53.623034",
        "tick_number": 102,
        "simulation_time": "2026-01-27T07:42:00.390414"
      },
      "conflict": {
        "type": "edge_capacity_overflow",
        "severity": "medium",
        "probability": 1.0,
        "location": "PAVIA--MILANO CENTRALE",
        "location_type": "edge",
        "explanation": "ðŸš¨ EDGE OVERLOAD at PAVIA--MILANO CENTRALE | Trains involved: IC_1539, FR_9752, REG_2816 (+1 more) | Edge PAVIA--MILANO CENTRALE has 4 trains but capacity is 3. Overflow ratio: 1.3x",
        "resolution_suggestions": [
          "Hold trains at previous station",
          "Reroute via alternative track",
          "Reduce speed to create spacing"
        ]
      },
      "affected_trains": [
        {
          "train_id": "IC_1539",
          "train_type": "intercity",
          "current_station": null,
          "next_station": "MILANO CENTRALE",
          "current_edge": "PAVIA--MILANO CENTRALE",
          "position_km": 12.0,
          "speed_kmh": 120,
          "delay_sec": 412,
          "status": "en_route",
          "lat": 45.29573066467066,
          "lon": 9.166178431137725,
          "route": [
            {
              "station_name": "VOGHERA",
              "station_order": 3,
              "lat": 44.9978,
              "lon": 9.007942,
              "distance_from_previous_km": 64.82
            },
            {
              "station_name": "PAVIA",
              "station_order": 4,
              "lat": 45.188843,
              "lon": 9.144674,
              "distance_from_previous_km": 23.8
            },
            {
              "station_name": "MILANO CENTRALE",
              "station_order": 5,
              "lat": 45.486347,
              "lon": 9.204528,
              "distance_from_previous_km": 33.4
            }
          ],
          "current_stop_index": 1
        },
        {
          "train_id": "FR_9752",
          "train_type": "high_speed",
          "current_station": null,
          "next_station": "MILANO CENTRALE",
          "current_edge": "PAVIA--MILANO CENTRALE",
          "position_km": 13.0,
          "speed_kmh": 120,
          "delay_sec": 712,
          "status": "en_route",
          "lat": 45.52474681357649,
          "lon": 10.046821161094226,
          "route": [
            {
              "station_name": "BRESCIA",
              "station_order": 7,
              "lat": 45.532315,
              "lon": 10.212828,
              "distance_from_previous_km": 42.1
            },
            {
              "station_name": "MILANO CENTRALE",
              "station_order": 8,
              "lat": 45.486347,
              "lon": 9.204528,
              "distance_from_previous_km": 78.96
            }
          ],
          "current_stop_index": 0
        },
        {
          "train_id": "REG_2816",
          "train_type": "regional",
          "current_station": null,
          "next_station": "MILANO CENTRALE",
          "current_edge": "PAVIA--MILANO CENTRALE",
          "position_km": 11.500000000000002,
          "speed_kmh": 80,
          "delay_sec": 492,
          "status": "en_route",
          "lat": 45.486347,
          "lon": 9.204528,
          "route": [
            {
              "station_name": "MILANO CENTRALE",
              "station_order": 1,
              "lat": 45.486347,
              "lon": 9.204528,
              "distance_from_previous_km": 6.05
            },
            {
              "station_name": "MILANO CENTRALE",
              "station_order": 1,
              "lat": 45.486347,
              "lon": 9.204528,
              "distance_from_previous_km": 3.06
            },
            {
              "station_name": "MILANO CENTRALE",
              "station_order": 1,
              "lat": 45.486347,
              "lon": 9.204528,
              "distance_from_previous_km": 0.0
            },
            {
              "station_name": "MILANO CENTRALE",
              "station_order": 1,
              "lat": 45.486347,
              "lon": 9.204528,
              "distance_from_previous_km": 0.0
            },
            {
              "station_name": "MONZA",
              "station_order": 2,
              "lat": 45.577789,
              "lon": 9.273253,
              "distance_from_previous_km": 3.33
            },
            {
              "station_name": "MONZA",
              "station_order": 2,
              "lat": 45.577789,
              "lon": 9.273253,
              "distance_from_previous_km": 2.45
            },
            {
              "station_name": "MONZA",
              "station_order": 2,
              "lat": 45.577789,
              "lon": 9.273253,
              "distance_from_previous_km": 11.934
            },
            {
              "station_name": "MONZA",
              "station_order": 2,
              "lat": 45.577789,
              "lon": 9.273253,
              "distance_from_previous_km": 11.934
            },
            {
              "station_name": "LECCO",
              "station_order": 3,
              "lat": 45.856471,
              "lon": 9.393638,
              "distance_from_previous_km": 3.03
            },
            {
              "station_name": "LECCO",
              "station_order": 3,
              "lat": 45.856471,
              "lon": 9.393638,
              "distance_from_previous_km": 3.28
            },
            {
              "station_name": "LECCO",
              "station_order": 3,
              "lat": 45.856471,
              "lon": 9.393638,
              "distance_from_previous_km": 36.794
            },
            {
              "station_name": "LECCO",
              "station_order": 3,
              "lat": 45.856471,
              "lon": 9.393638,
              "distance_from_previous_km": 36.794
            },
            {
              "station_name": "MANDELLO DEL LARIO",
              "station_order": 4,
              "lat": 45.915208,
              "lon": 9.322061,
              "distance_from_previous_km": 2.82
            },
            {
              "station_name": "MANDELLO DEL LARIO",
              "station_order": 4,
              "lat": 45.915208,
              "lon": 9.322061,
              "distance_from_previous_km": 9.441
            },
            {
              "station_name": "MANDELLO DEL LARIO",
              "station_order": 4,
              "lat": 45.915208,
              "lon": 9.322061,
              "distance_from_previous_km": 9.441
            },
            {
              "station_name": "VARENNA ESINO",
              "station_order": 5,
              "lat": 46.015,
              "lon": 9.286405,
              "distance_from_previous_km": 4.74
            },
            {
              "station_name": "VARENNA ESINO",
              "station_order": 5,
              "lat": 46.015,
              "lon": 9.286405,
              "distance_from_previous_km": 12.148
            },
            {
              "station_name": "VARENNA ESINO",
              "station_order": 5,
              "lat": 46.015,
              "lon": 9.286405,
              "distance_from_previous_km": 12.148
            },
            {
              "station_name": "BELLANO TARTAVELLE TERME",
              "station_order": 6,
              "lat": 46.039448,
              "lon": 9.302776,
              "distance_from_previous_km": 1.37
            },
            {
              "station_name": "BELLANO TARTAVELLE TERME",
              "station_order": 6,
              "lat": 46.039448,
              "lon": 9.302776,
              "distance_from_previous_km": 3.258
            },
            {
              "station_name": "BELLANO TARTAVELLE TERME",
              "station_order": 6,
              "lat": 46.039448,
              "lon": 9.302776,
              "distance_from_previous_km": 3.258
            },
            {
              "station_name": "COLICO",
              "station_order": 7,
              "lat": 46.138019,
              "lon": 9.375222,
              "distance_from_previous_km": 1.91
            },
            {
              "station_name": "COLICO",
              "station_order": 7,
              "lat": 46.138019,
              "lon": 9.375222,
              "distance_from_previous_km": 14.132
            },
            {
              "station_name": "COLICO",
              "station_order": 7,
              "lat": 46.138019,
              "lon": 9.375222,
              "distance_from_previous_km": 14.132
            },
            {
              "station_name": "MORBEGNO",
              "station_order": 8,
              "lat": 46.136663,
              "lon": 9.568646,
              "distance_from_previous_km": 15.395
            },
            {
              "station_name": "MORBEGNO",
              "station_order": 8,
              "lat": 46.136663,
              "lon": 9.568646,
              "distance_from_previous_km": 15.395
            },
            {
              "station_name": "SONDRIO",
              "station_order": 9,
              "lat": 46.167064,
              "lon": 9.872928,
              "distance_from_previous_km": 25.07
            },
            {
              "station_name": "SONDRIO",
              "station_order": 9,
              "lat": 46.167064,
              "lon": 9.872928,
              "distance_from_previous_km": 25.07
            },
            {
              "station_name": "TRESENDA-APRICA-TEGLIO",
              "station_order": 10,
              "lat": 46.162082,
              "lon": 10.083754,
              "distance_from_previous_km": 16.889
            },
            {
              "station_name": "TIRANO",
              "station_order": 11,
              "lat": 46.21539,
              "lon": 10.166961,
              "distance_from_previous_km": 9.068
            }
          ],
          "current_stop_index": 1
        },
        {
          "train_id": "REG_33137",
          "train_type": "regional",
          "current_station": null,
          "next_station": "MORBEGNO",
          "current_edge": "PAVIA--MILANO CENTRALE",
          "position_km": 15.500000000000002,
          "speed_kmh": 80,
          "delay_sec": 837,
          "status": "delayed",
          "lat": 46.15135681666667,
          "lon": 9.715715633333334,
          "route": [
            {
              "station_name": "SONDRIO",
              "station_order": 1,
              "lat": 46.167064,
              "lon": 9.872928,
              "distance_from_previous_km": 4.14
            },
            {
              "station_name": "MORBEGNO",
              "station_order": 1,
              "lat": 46.136663,
              "lon": 9.568646,
              "distance_from_previous_km": 0.0
            },
            {
              "station_name": "MORBEGNO",
              "station_order": 2,
              "lat": 46.136663,
              "lon": 9.568646,
              "distance_from_previous_km": 7.22
            },
            {
              "station_name": "COSIO TRAONA",
              "station_order": 2,
              "lat": 46.135564,
              "lon": 9.525498,
              "distance_from_previous_km": 3.421
            },
            {
              "station_name": "COLICO",
              "station_order": 3,
              "lat": 46.138019,
              "lon": 9.375222,
              "distance_from_previous_km": 9.16
            },
            {
              "station_name": "DELEBIO",
              "station_order": 3,
              "lat": 46.13865,
              "lon": 9.461168,
              "distance_from_previous_km": 5.028
            },
            {
              "station_name": "COLICO",
              "station_order": 4,
              "lat": 46.138019,
              "lon": 9.375222,
              "distance_from_previous_km": 6.946
            }
          ],
          "current_stop_index": 0
        }
      ],
      "network_context": {},
      "status": "unresolved"
    },
    {
      "metadata": {
        "conflict_id": "a4385e32-cc5d-441e-99e5-d48d4d309c32",
        "timestamp": "2026-01-27T20:39:54.107392",
        "tick_number": 103,
        "simulation_time": "2026-01-27T07:43:00.390414"
      },
      "conflict": {
        "type": "edge_capacity_overflow",
        "severity": "medium",
        "probability": 1.0,
        "location": "PAVIA--MILANO CENTRALE",
        "location_type": "edge",
        "explanation": "ðŸš¨ EDGE OVERLOAD at PAVIA--MILANO CENTRALE | Trains involved: IC_1539, FR_9752, REG_2816 (+1 more) | Edge PAVIA--MILANO CENTRALE has 4 trains but capacity is 3. Overflow ratio: 1.3x",
        "resolution_suggestions": [
          "Hold trains at previous station",
          "Reroute via alternative track",
          "Reduce speed to create spacing"
        ]
      },
      "affected_trains": [
        {
          "train_id": "IC_1539",
          "train_type": "intercity",
          "current_station": null,
          "next_station": "MILANO CENTRALE",
          "current_edge": "PAVIA--MILANO CENTRALE",
          "position_km": 14.0,
          "speed_kmh": 120,
          "delay_sec": 412,
          "status": "en_route",
          "lat": 45.3135452754491,
          "lon": 9.169762502994011,
          "route": [
            {
              "station_name": "VOGHERA",
              "station_order": 3,
              "lat": 44.9978,
              "lon": 9.007942,
              "distance_from_previous_km": 64.82
            },
            {
              "station_name": "PAVIA",
              "station_order": 4,
              "lat": 45.188843,
              "lon": 9.144674,
              "distance_from_previous_km": 23.8
            },
            {
              "station_name": "MILANO CENTRALE",
              "station_order": 5,
              "lat": 45.486347,
              "lon": 9.204528,
              "distance_from_previous_km": 33.4
            }
          ],
          "current_stop_index": 1
        },
        {
          "train_id": "FR_9752",
          "train_type": "high_speed",
          "current_station": null,
          "next_station": "MILANO CENTRALE",
          "current_edge": "PAVIA--MILANO CENTRALE",
          "position_km": 15.0,
          "speed_kmh": 120,
          "delay_sec": 712,
          "status": "en_route",
          "lat": 45.52358247720365,
          "lon": 10.021281647416414,
          "route": [
            {
              "station_name": "BRESCIA",
              "station_order": 7,
              "lat": 45.532315,
              "lon": 10.212828,
              "distance_from_previous_km": 42.1
            },
            {
              "station_name": "MILANO CENTRALE",
              "station_order": 8,
              "lat": 45.486347,
              "lon": 9.204528,
              "distance_from_previous_km": 78.96
            }
          ],
          "current_stop_index": 0
        },
        {
          "train_id": "REG_2816",
          "train_type": "regional",
          "current_station": null,
          "next_station": "MILANO CENTRALE",
          "current_edge": "PAVIA--MILANO CENTRALE",
          "position_km": 12.833333333333336,
          "speed_kmh": 80,
          "delay_sec": 492,
          "status": "en_route",
          "lat": 45.486347,
          "lon": 9.204528,
          "route": [
            {
              "station_name": "MILANO CENTRALE",
              "station_order": 1,
              "lat": 45.486347,
              "lon": 9.204528,
              "distance_from_previous_km": 6.05
            },
            {
              "station_name": "MILANO CENTRALE",
              "station_order": 1,
              "lat": 45.486347,
              "lon": 9.204528,
              "distance_from_previous_km": 3.06
            },
            {
              "station_name": "MILANO CENTRALE",
              "station_order": 1,
              "lat": 45.486347,
              "lon": 9.204528,
              "distance_from_previous_km": 0.0
            },
            {
              "station_name": "MILANO CENTRALE",
              "station_order": 1,
              "lat": 45.486347,
              "lon": 9.204528,
              "distance_from_previous_km": 0.0
            },
            {
              "station_name": "MONZA",
              "station_order": 2,
              "lat": 45.577789,
              "lon": 9.273253,
              "distance_from_previous_km": 3.33
            },
            {
              "station_name": "MONZA",
              "station_order": 2,
              "lat": 45.577789,
              "lon": 9.273253,
              "distance_from_previous_km": 2.45
            },
            {
              "station_name": "MONZA",
              "station_order": 2,
              "lat": 45.577789,
              "lon": 9.273253,
              "distance_from_previous_km": 11.934
            },
            {
              "station_name": "MONZA",
              "station_order": 2,
              "lat": 45.577789,
              "lon": 9.273253,
              "distance_from_previous_km": 11.934
            },
            {
              "station_name": "LECCO",
              "station_order": 3,
              "lat": 45.856471,
              "lon": 9.393638,
              "distance_from_previous_km": 3.03
            },
            {
              "station_name": "LECCO",
              "station_order": 3,
              "lat": 45.856471,
              "lon": 9.393638,
              "distance_from_previous_km": 3.28
            },
            {
              "station_name": "LECCO",
              "station_order": 3,
              "lat": 45.856471,
              "lon": 9.393638,
              "distance_from_previous_km": 36.794
            },
            {
              "station_name": "LECCO",
              "station_order": 3,
              "lat": 45.856471,
              "lon": 9.393638,
              "distance_from_previous_km": 36.794
            },
            {
              "station_name": "MANDELLO DEL LARIO",
              "station_order": 4,
              "lat": 45.915208,
              "lon": 9.322061,
              "distance_from_previous_km": 2.82
            },
            {
              "station_name": "MANDELLO DEL LARIO",
              "station_order": 4,
              "lat": 45.915208,
              "lon": 9.322061,
              "distance_from_previous_km": 9.441
            },
            {
              "station_name": "MANDELLO DEL LARIO",
              "station_order": 4,
              "lat": 45.915208,
              "lon": 9.322061,
              "distance_from_previous_km": 9.441
            },
            {
              "station_name": "VARENNA ESINO",
              "station_order": 5,
              "lat": 46.015,
              "lon": 9.286405,
              "distance_from_previous_km": 4.74
            },
            {
              "station_name": "VARENNA ESINO",
              "station_order": 5,
              "lat": 46.015,
              "lon": 9.286405,
              "distance_from_previous_km": 12.148
            },
            {
              "station_name": "VARENNA ESINO",
              "station_order": 5,
              "lat": 46.015,
              "lon": 9.286405,
              "distance_from_previous_km": 12.148
            },
            {
              "station_name": "BELLANO TARTAVELLE TERME",
              "station_order": 6,
              "lat": 46.039448,
              "lon": 9.302776,
              "distance_from_previous_km": 1.37
            },
            {
              "station_name": "BELLANO TARTAVELLE TERME",
              "station_order": 6,
              "lat": 46.039448,
              "lon": 9.302776,
              "distance_from_previous_km": 3.258
            },
            {
              "station_name": "BELLANO TARTAVELLE TERME",
              "station_order": 6,
              "lat": 46.039448,
              "lon": 9.302776,
              "distance_from_previous_km": 3.258
            },
            {
              "station_name": "COLICO",
              "station_order": 7,
              "lat": 46.138019,
              "lon": 9.375222,
              "distance_from_previous_km": 1.91
            },
            {
              "station_name": "COLICO",
              "station_order": 7,
              "lat": 46.138019,
              "lon": 9.375222,
              "distance_from_previous_km": 14.132
            },
            {
              "station_name": "COLICO",
              "station_order": 7,
              "lat": 46.138019,
              "lon": 9.375222,
              "distance_from_previous_km": 14.132
            },
            {
              "station_name": "MORBEGNO",
              "station_order": 8,
              "lat": 46.136663,
              "lon": 9.568646,
              "distance_from_previous_km": 15.395
            },
            {
              "station_name": "MORBEGNO",
              "station_order": 8,
              "lat": 46.136663,
              "lon": 9.568646,
              "distance_from_previous_km": 15.395
            },
            {
              "station_name": "SONDRIO",
              "station_order": 9,
              "lat": 46.167064,
              "lon": 9.872928,
              "distance_from_previous_km": 25.07
            },
            {
              "station_name": "SONDRIO",
              "station_order": 9,
              "lat": 46.167064,
              "lon": 9.872928,
              "distance_from_previous_km": 25.07
            },
            {
              "station_name": "TRESENDA-APRICA-TEGLIO",
              "station_order": 10,
              "lat": 46.162082,
              "lon": 10.083754,
              "distance_from_previous_km": 16.889
            },
            {
              "station_name": "TIRANO",
              "station_order": 11,
              "lat": 46.21539,
              "lon": 10.166961,
              "distance_from_previous_km": 9.068
            }
          ],
          "current_stop_index": 1
        },
        {
          "train_id": "REG_33137",
          "train_type": "regional",
          "current_station": null,
          "next_station": "MORBEGNO",
          "current_edge": "PAVIA--MILANO CENTRALE",
          "position_km": 15.500000000000002,
          "speed_kmh": 80,
          "delay_sec": 837,
          "status": "delayed",
          "lat": 46.15135681666667,
          "lon": 9.715715633333334,
          "route": [
            {
              "station_name": "SONDRIO",
              "station_order": 1,
              "lat": 46.167064,
              "lon": 9.872928,
              "distance_from_previous_km": 4.14
            },
            {
              "station_name": "MORBEGNO",
              "station_order": 1,
              "lat": 46.136663,
              "lon": 9.568646,
              "distance_from_previous_km": 0.0
            },
            {
              "station_name": "MORBEGNO",
              "station_order": 2,
              "lat": 46.136663,
              "lon": 9.568646,
              "distance_from_previous_km": 7.22
            },
            {
              "station_name": "COSIO TRAONA",
              "station_order": 2,
              "lat": 46.135564,
              "lon": 9.525498,
              "distance_from_previous_km": 3.421
            },
            {
              "station_name": "COLICO",
              "station_order": 3,
              "lat": 46.138019,
              "lon": 9.375222,
              "distance_from_previous_km": 9.16
            },
            {
              "station_name": "DELEBIO",
              "station_order": 3,
              "lat": 46.13865,
              "lon": 9.461168,
              "distance_from_previous_km": 5.028
            },
            {
              "station_name": "COLICO",
              "station_order": 4,
              "lat": 46.138019,
              "lon": 9.375222,
              "distance_from_previous_km": 6.946
            }
          ],
          "current_stop_index": 0
        }
      ],
      "network_context": {},
      "status": "unresolved"
    },
    {
      "metadata": {
        "conflict_id": "cae6bcc5-8b83-44a2-8268-9b9d933909ba",
        "timestamp": "2026-01-27T20:39:54.124413",
        "tick_number": 104,
        "simulation_time": "2026-01-27T07:44:00.390414"
      },
      "conflict": {
        "type": "edge_capacity_overflow",
        "severity": "medium",
        "probability": 1.0,
        "location": "PAVIA--MILANO CENTRALE",
        "location_type": "edge",
        "explanation": "ðŸš¨ EDGE OVERLOAD at PAVIA--MILANO CENTRALE | Trains involved: IC_1539, FR_9752, REG_2816 (+1 more) | Edge PAVIA--MILANO CENTRALE has 4 trains but capacity is 3. Overflow ratio: 1.3x",
        "resolution_suggestions": [
          "Hold trains at previous station",
          "Reroute via alternative track",
          "Reduce speed to create spacing"
        ]
      },
      "affected_trains": [
        {
          "train_id": "IC_1539",
          "train_type": "intercity",
          "current_station": null,
          "next_station": "MILANO CENTRALE",
          "current_edge": "PAVIA--MILANO CENTRALE",
          "position_km": 16.0,
          "speed_kmh": 120,
          "delay_sec": 412,
          "status": "en_route",
          "lat": 45.331359886227546,
          "lon": 9.1733465748503,
          "route": [
            {
              "station_name": "VOGHERA",
              "station_order": 3,
              "lat": 44.9978,
              "lon": 9.007942,
              "distance_from_previous_km": 64.82
            },
            {
              "station_name": "PAVIA",
              "station_order": 4,
              "lat": 45.188843,
              "lon": 9.144674,
              "distance_from_previous_km": 23.8
            },
            {
              "station_name": "MILANO CENTRALE",
              "station_order": 5,
              "lat": 45.486347,
              "lon": 9.204528,
              "distance_from_previous_km": 33.4
            }
          ],
          "current_stop_index": 1
        },
        {
          "train_id": "FR_9752",
          "train_type": "high_speed",
          "current_station": null,
          "next_station": "MILANO CENTRALE",
          "current_edge": "PAVIA--MILANO CENTRALE",
          "position_km": 17.0,
          "speed_kmh": 120,
          "delay_sec": 712,
          "status": "en_route",
          "lat": 45.5224181408308,
          "lon": 9.995742133738602,
          "route": [
            {
              "station_name": "BRESCIA",
              "station_order": 7,
              "lat": 45.532315,
              "lon": 10.212828,
              "distance_from_previous_km": 42.1
            },
            {
              "station_name": "MILANO CENTRALE",
              "station_order": 8,
              "lat": 45.486347,
              "lon": 9.204528,
              "distance_from_previous_km": 78.96
            }
          ],
          "current_stop_index": 0
        },
        {
          "train_id": "REG_2816",
          "train_type": "regional",
          "current_station": null,
          "next_station": "MILANO CENTRALE",
          "current_edge": "PAVIA--MILANO CENTRALE",
          "position_km": 14.16666666666667,
          "speed_kmh": 80,
          "delay_sec": 492,
          "status": "en_route",
          "lat": 45.486347,
          "lon": 9.204528,
          "route": [
            {
              "station_name": "MILANO CENTRALE",
              "station_order": 1,
              "lat": 45.486347,
              "lon": 9.204528,
              "distance_from_previous_km": 6.05
            },
            {
              "station_name": "MILANO CENTRALE",
              "station_order": 1,
              "lat": 45.486347,
              "lon": 9.204528,
              "distance_from_previous_km": 3.06
            },
            {
              "station_name": "MILANO CENTRALE",
              "station_order": 1,
              "lat": 45.486347,
              "lon": 9.204528,
              "distance_from_previous_km": 0.0
            },
            {
              "station_name": "MILANO CENTRALE",
              "station_order": 1,
              "lat": 45.486347,
              "lon": 9.204528,
              "distance_from_previous_km": 0.0
            },
            {
              "station_name": "MONZA",
              "station_order": 2,
              "lat": 45.577789,
              "lon": 9.273253,
              "distance_from_previous_km": 3.33
            },
            {
              "station_name": "MONZA",
              "station_order": 2,
              "lat": 45.577789,
              "lon": 9.273253,
              "distance_from_previous_km": 2.45
            },
            {
              "station_name": "MONZA",
              "station_order": 2,
              "lat": 45.577789,
              "lon": 9.273253,
              "distance_from_previous_km": 11.934
            },
            {
              "station_name": "MONZA",
              "station_order": 2,
              "lat": 45.577789,
              "lon": 9.273253,
              "distance_from_previous_km": 11.934
            },
            {
              "station_name": "LECCO",
              "station_order": 3,
              "lat": 45.856471,
              "lon": 9.393638,
              "distance_from_previous_km": 3.03
            },
            {
              "station_name": "LECCO",
              "station_order": 3,
              "lat": 45.856471,
              "lon": 9.393638,
              "distance_from_previous_km": 3.28
            },
            {
              "station_name": "LECCO",
              "station_order": 3,
              "lat": 45.856471,
              "lon": 9.393638,
              "distance_from_previous_km": 36.794
            },
            {
              "station_name": "LECCO",
              "station_order": 3,
              "lat": 45.856471,
              "lon": 9.393638,
              "distance_from_previous_km": 36.794
            },
            {
              "station_name": "MANDELLO DEL LARIO",
              "station_order": 4,
              "lat": 45.915208,
              "lon": 9.322061,
              "distance_from_previous_km": 2.82
            },
            {
              "station_name": "MANDELLO DEL LARIO",
              "station_order": 4,
              "lat": 45.915208,
              "lon": 9.322061,
              "distance_from_previous_km": 9.441
            },
            {
              "station_name": "MANDELLO DEL LARIO",
              "station_order": 4,
              "lat": 45.915208,
              "lon": 9.322061,
              "distance_from_previous_km": 9.441
            },
            {
              "station_name": "VARENNA ESINO",
              "station_order": 5,
              "lat": 46.015,
              "lon": 9.286405,
              "distance_from_previous_km": 4.74
            },
            {
              "station_name": "VARENNA ESINO",
              "station_order": 5,
              "lat": 46.015,
              "lon": 9.286405,
              "distance_from_previous_km": 12.148
            },
            {
              "station_name": "VARENNA ESINO",
              "station_order": 5,
              "lat": 46.015,
              "lon": 9.286405,
              "distance_from_previous_km": 12.148
            },
            {
              "station_name": "BELLANO TARTAVELLE TERME",
              "station_order": 6,
              "lat": 46.039448,
              "lon": 9.302776,
              "distance_from_previous_km": 1.37
            },
            {
              "station_name": "BELLANO TARTAVELLE TERME",
              "station_order": 6,
              "lat": 46.039448,
              "lon": 9.302776,
              "distance_from_previous_km": 3.258
            },
            {
              "station_name": "BELLANO TARTAVELLE TERME",
              "station_order": 6,
              "lat": 46.039448,
              "lon": 9.302776,
              "distance_from_previous_km": 3.258
            },
            {
              "station_name": "COLICO",
              "station_order": 7,
              "lat": 46.138019,
              "lon": 9.375222,
              "distance_from_previous_km": 1.91
            },
            {
              "station_name": "COLICO",
              "station_order": 7,
              "lat": 46.138019,
              "lon": 9.375222,
              "distance_from_previous_km": 14.132
            },
            {
              "station_name": "COLICO",
              "station_order": 7,
              "lat": 46.138019,
              "lon": 9.375222,
              "distance_from_previous_km": 14.132
            },
            {
              "station_name": "MORBEGNO",
              "station_order": 8,
              "lat": 46.136663,
              "lon": 9.568646,
              "distance_from_previous_km": 15.395
            },
            {
              "station_name": "MORBEGNO",
              "station_order": 8,
              "lat": 46.136663,
              "lon": 9.568646,
              "distance_from_previous_km": 15.395
            },
            {
              "station_name": "SONDRIO",
              "station_order": 9,
              "lat": 46.167064,
              "lon": 9.872928,
              "distance_from_previous_km": 25.07
            },
            {
              "station_name": "SONDRIO",
              "station_order": 9,
              "lat": 46.167064,
              "lon": 9.872928,
              "distance_from_previous_km": 25.07
            },
            {
              "station_name": "TRESENDA-APRICA-TEGLIO",
              "station_order": 10,
              "lat": 46.162082,
              "lon": 10.083754,
              "distance_from_previous_km": 16.889
            },
            {
              "station_name": "TIRANO",
              "station_order": 11,
              "lat": 46.21539,
              "lon": 10.166961,
              "distance_from_previous_km": 9.068
            }
          ],
          "current_stop_index": 1
        },
        {
          "train_id": "REG_33137",
          "train_type": "regional",
          "current_station": null,
          "next_station": "MORBEGNO",
          "current_edge": "PAVIA--MILANO CENTRALE",
          "position_km": 15.500000000000002,
          "speed_kmh": 80,
          "delay_sec": 837,
          "status": "delayed",
          "lat": 46.15135681666667,
          "lon": 9.715715633333334,
          "route": [
            {
              "station_name": "SONDRIO",
              "station_order": 1,
              "lat": 46.167064,
              "lon": 9.872928,
              "distance_from_previous_km": 4.14
            },
            {
              "station_name": "MORBEGNO",
              "station_order": 1,
              "lat": 46.136663,
              "lon": 9.568646,
              "distance_from_previous_km": 0.0
            },
            {
              "station_name": "MORBEGNO",
              "station_order": 2,
              "lat": 46.136663,
              "lon": 9.568646,
              "distance_from_previous_km": 7.22
            },
            {
              "station_name": "COSIO TRAONA",
              "station_order": 2,
              "lat": 46.135564,
              "lon": 9.525498,
              "distance_from_previous_km": 3.421
            },
            {
              "station_name": "COLICO",
              "station_order": 3,
              "lat": 46.138019,
              "lon": 9.375222,
              "distance_from_previous_km": 9.16
            },
            {
              "station_name": "DELEBIO",
              "station_order": 3,
              "lat": 46.13865,
              "lon": 9.461168,
              "distance_from_previous_km": 5.028
            },
            {
              "station_name": "COLICO",
              "station_order": 4,
              "lat": 46.138019,
              "lon": 9.375222,
              "distance_from_previous_km": 6.946
            }
          ],
          "current_stop_index": 0
        }
      ],
      "network_context": {},
      "status": "unresolved"
    },
    {
      "metadata": {
        "conflict_id": "f48a5fc7-8b99-45b5-bfab-4017b6932d6a",
        "timestamp": "2026-01-27T20:39:54.195000",
        "tick_number": 105,
        "simulation_time": "2026-01-27T07:45:00.390414"
      },
      "conflict": {
        "type": "edge_capacity_overflow",
        "severity": "medium",
        "probability": 1.0,
        "location": "PAVIA--MILANO CENTRALE",
        "location_type": "edge",
        "explanation": "ðŸš¨ EDGE OVERLOAD at PAVIA--MILANO CENTRALE | Trains involved: IC_1539, FR_9752, REG_2816 (+1 more) | Edge PAVIA--MILANO CENTRALE has 4 trains but capacity is 3. Overflow ratio: 1.3x",
        "resolution_suggestions": [
          "Hold trains at previous station",
          "Reroute via alternative track",
          "Reduce speed to create spacing"
        ]
      },
      "affected_trains": [
        {
          "train_id": "IC_1539",
          "train_type": "intercity",
          "current_station": null,
          "next_station": "MILANO CENTRALE",
          "current_edge": "PAVIA--MILANO CENTRALE",
          "position_km": 18.0,
          "speed_kmh": 120,
          "delay_sec": 412,
          "status": "en_route",
          "lat": 45.34917449700599,
          "lon": 9.176930646706587,
          "route": [
            {
              "station_name": "VOGHERA",
              "station_order": 3,
              "lat": 44.9978,
              "lon": 9.007942,
              "distance_from_previous_km": 64.82
            },
            {
              "station_name": "PAVIA",
              "station_order": 4,
              "lat": 45.188843,
              "lon": 9.144674,
              "distance_from_previous_km": 23.8
            },
            {
              "station_name": "MILANO CENTRALE",
              "station_order": 5,
              "lat": 45.486347,
              "lon": 9.204528,
              "distance_from_previous_km": 33.4
            }
          ],
          "current_stop_index": 1
        },
        {
          "train_id": "FR_9752",
          "train_type": "high_speed",
          "current_station": null,
          "next_station": "MILANO CENTRALE",
          "current_edge": "PAVIA--MILANO CENTRALE",
          "position_km": 19.0,
          "speed_kmh": 120,
          "delay_sec": 712,
          "status": "en_route",
          "lat": 45.52125380445795,
          "lon": 9.97020262006079,
          "route": [
            {
              "station_name": "BRESCIA",
              "station_order": 7,
              "lat": 45.532315,
              "lon": 10.212828,
              "distance_from_previous_km": 42.1
            },
            {
              "station_name": "MILANO CENTRALE",
              "station_order": 8,
              "lat": 45.486347,
              "lon": 9.204528,
              "distance_from_previous_km": 78.96
            }
          ],
          "current_stop_index": 0
        },