{
  "file_info": {
    "description": "All detected conflicts from simulation",
    "last_updated": "2026-01-27T18:22:08.560261",
    "total_conflicts": 220,
    "unresolved_count": 220,
    "resolved_count": 0
  },
  "conflicts": [
    {
      "metadata": {
        "conflict_id": "fcb2fee3-cf00-4e82-b0bc-ad4600360733",
        "timestamp": "2026-01-25T21:58:31.410785",
        "tick_number": 25,
        "simulation_time": "2026-01-25T06:25:00.459685"
      },
      "conflict": {
        "type": "edge_capacity_overflow",
        "severity": "medium",
        "probability": 1.0,
        "location": "SESTO S. GIOVANNI--MONZA",
        "location_type": "edge",
        "explanation": "ðŸš¨ EDGE OVERLOAD at SESTO S. GIOVANNI--MONZA | Trains involved: REG_25821, REG_2512, REG_10207 (+1 more) | Edge SESTO S. GIOVANNI--MONZA has 4 trains but capacity is 3. Overflow ratio: 1.3x",
        "resolution_suggestions": [
          "Hold trains at previous station",
          "Reroute via alternative track",
          "Reduce speed to create spacing"
        ]
      },
      "affected_trains": [
        {
          "train_id": "REG_25821",
          "train_type": "regional",
          "current_station": null,
          "next_station": "MONZA",
          "current_edge": "SESTO S. GIOVANNI--MONZA",
          "position_km": 1.3333333333333335,
          "speed_kmh": 80,
          "delay_sec": 313,
          "status": "en_route",
          "lat": 45.5511272133771,
          "lon": 9.248559138284776,
          "route": [
            {
              "station_name": "MILANO PORTA GARIBALDI",
              "station_order": 1,
              "lat": 45.484917,
              "lon": 9.187683,
              "distance_from_previous_km": 0.0
            },
            {
              "station_name": "MILANO GRECO PIRELLI",
              "station_order": 2,
              "lat": 45.51272,
              "lon": 9.214456,
              "distance_from_previous_km": 3.984
            },
            {
              "station_name": "SESTO S. GIOVANNI",
              "station_order": 3,
              "lat": 45.541087,
              "lon": 9.23926,
              "distance_from_previous_km": 3.709
            },
            {
              "station_name": "MONZA",
              "station_order": 4,
              "lat": 45.577789,
              "lon": 9.273253,
              "distance_from_previous_km": 4.874
            },
            {
              "station_name": "ARCORE",
              "station_order": 5,
              "lat": 45.623493,
              "lon": 9.322798,
              "distance_from_previous_km": 6.558
            },
            {
              "station_name": "CARNATE USMATE",
              "station_order": 6,
              "lat": 45.653072,
              "lon": 9.375089,
              "distance_from_previous_km": 5.245
            },
            {
              "station_name": "PADERNO ROBBIATE",
              "station_order": 7,
              "lat": 45.678307,
              "lon": 9.439202,
              "distance_from_previous_km": 6.074
            },
            {
              "station_name": "CALUSCO",
              "station_order": 8,
              "lat": 45.684113,
              "lon": 9.470646,
              "distance_from_previous_km": 2.662
            },
            {
              "station_name": "TERNO",
              "station_order": 9,
              "lat": 45.688658,
              "lon": 9.536169,
              "distance_from_previous_km": 5.127
            },
            {
              "station_name": "PONTE S.PIETRO",
              "station_order": 10,
              "lat": 45.69916,
              "lon": 9.584322,
              "distance_from_previous_km": 4.057
            }
          ],
          "current_stop_index": 2
        },
        {
          "train_id": "REG_2512",
          "train_type": "regional",
          "current_station": null,
          "next_station": "ARCISATE",
          "current_edge": "SESTO S. GIOVANNI--MONZA",
          "position_km": 1.8333333333333335,
          "speed_kmh": 80,
          "delay_sec": 451,
          "status": "en_route",
          "lat": 45.856076651364226,
          "lon": 8.857454950050528,
          "route": [
            {
              "station_name": "VARESE",
              "station_order": 1,
              "lat": 45.816201,
              "lon": 8.833089,
              "distance_from_previous_km": 0.0
            },
            {
              "station_name": "INDUNO OLONA",
              "station_order": 2,
              "lat": 45.846432,
              "lon": 8.838357,
              "distance_from_previous_km": 3.211
            },
            {
              "station_name": "ARCISATE",
              "station_order": 3,
              "lat": 45.858579,
              "lon": 8.86241,
              "distance_from_previous_km": 2.309
            },
            {
              "station_name": "BISUSCHIO VIGGIU",
              "station_order": 4,
              "lat": 45.870658,
              "lon": 8.887544,
              "distance_from_previous_km": 2.391
            },
            {
              "station_name": "PORTO CERESIO",
              "station_order": 5,
              "lat": 45.903675,
              "lon": 8.900357,
              "distance_from_previous_km": 3.673
            }
          ],
          "current_stop_index": 1
        },
        {
          "train_id": "REG_10207",
          "train_type": "regional",
          "current_station": null,
          "next_station": "SOMMA LOMBARDO",
          "current_edge": "SESTO S. GIOVANNI--MONZA",
          "position_km": 2.3333333333333335,
          "speed_kmh": 80,
          "delay_sec": 178,
          "status": "en_route",
          "lat": 45.70986226241134,
          "lon": 8.697868796690308,
          "route": [
            {
              "station_name": "SESTO CALENDE",
              "station_order": 14,
              "lat": 45.726241,
              "lon": 8.628135,
              "distance_from_previous_km": 9.98
            },
            {
              "station_name": "VERGIATE",
              "station_order": 15,
              "lat": 45.717119,
              "lon": 8.693187,
              "distance_from_previous_km": 6.39
            },
            {
              "station_name": "SOMMA LOMBARDO",
              "station_order": 16,
              "lat": 45.686423,
              "lon": 8.712991,
              "distance_from_previous_km": 9.87
            },
            {
              "station_name": "CASORATE SEMPIONE",
              "station_order": 17,
              "lat": 45.675075,
              "lon": 8.743954,
              "distance_from_previous_km": 14.71
            },
            {
              "station_name": "GALLARATE",
              "station_order": 18,
              "lat": 45.659828,
              "lon": 8.798243,
              "distance_from_previous_km": 6.37
            },
            {
              "station_name": "BUSTO ARSIZIO",
              "station_order": 19,
              "lat": 45.616164,
              "lon": 8.865031,
              "distance_from_previous_km": 3.06
            },
            {
              "station_name": "RHO FIERA MILANO",
              "station_order": 20,
              "lat": 45.521157,
              "lon": 9.088595,
              "distance_from_previous_km": 3.56
            },
            {
              "station_name": "MILANO PORTA GARIBALDI",
              "station_order": 21,
              "lat": 45.484917,
              "lon": 9.187683,
              "distance_from_previous_km": 4.27
            }
          ],
          "current_stop_index": 1
        },
        {
          "train_id": "FR_9700",
          "train_type": "high_speed",
          "current_station": null,
          "next_station": "DESENZANO",
          "current_edge": "SESTO S. GIOVANNI--MONZA",
          "position_km": 3.5,
          "speed_kmh": 120,
          "delay_sec": 0,
          "status": "en_route",
          "lat": 45.4837136560712,
          "lon": 9.352693257469802,
          "route": [
            {
              "station_name": "MILANO CENTRALE",
              "station_order": 4,
              "lat": 45.486347,
              "lon": 9.204528,
              "distance_from_previous_km": 209.48
            },
            {
              "station_name": "DESENZANO",
              "station_order": 7,
              "lat": 45.462677,
              "lon": 10.536322,
              "distance_from_previous_km": 31.46
            },
            {
              "station_name": "BRESCIA",
              "station_order": 8,
              "lat": 45.532315,
              "lon": 10.212828,
              "distance_from_previous_km": 4.33
            },
            {
              "station_name": "MILANO CENTRALE",
              "station_order": 9,
              "lat": 45.486347,
              "lon": 9.204528,
              "distance_from_previous_km": 12.46
            }
          ],
          "current_stop_index": 0
        }
      ],
      "network_context": {},
      "status": "unresolved"
    },
    {
      "metadata": {
        "conflict_id": "e6045dcc-a563-4b9f-95db-23dfa5423799",
        "timestamp": "2026-01-25T21:58:41.941946",
        "tick_number": 30,
        "simulation_time": "2026-01-25T06:30:00.459685"
      },
      "conflict": {
        "type": "edge_capacity_overflow",
        "severity": "medium",
        "probability": 1.0,
        "location": "SESTO S. GIOVANNI--MONZA",
        "location_type": "edge",
        "explanation": "ðŸš¨ EDGE OVERLOAD at SESTO S. GIOVANNI--MONZA | Trains involved: REG_10207, FR_9700, REG_2816 (+1 more) | Edge SESTO S. GIOVANNI--MONZA has 4 trains but capacity is 3. Overflow ratio: 1.3x",
        "resolution_suggestions": [
          "Hold trains at previous station",
          "Reroute via alternative track",
          "Reduce speed to create spacing"
        ]
      },
      "affected_trains": [
        {
          "train_id": "REG_10207",
          "train_type": "regional",
          "current_station": null,
          "next_station": "SOMMA LOMBARDO",
          "current_edge": "SESTO S. GIOVANNI--MONZA",
          "position_km": 9.000000000000002,
          "speed_kmh": 80,
          "delay_sec": 178,
          "status": "en_route",
          "lat": 45.68912872644377,
          "lon": 8.711245358662614,
          "route": [
            {
              "station_name": "SESTO CALENDE",
              "station_order": 14,
              "lat": 45.726241,
              "lon": 8.628135,
              "distance_from_previous_km": 9.98
            },
            {
              "station_name": "VERGIATE",
              "station_order": 15,
              "lat": 45.717119,
              "lon": 8.693187,
              "distance_from_previous_km": 6.39
            },
            {
              "station_name": "SOMMA LOMBARDO",
              "station_order": 16,
              "lat": 45.686423,
              "lon": 8.712991,
              "distance_from_previous_km": 9.87
            },
            {
              "station_name": "CASORATE SEMPIONE",
              "station_order": 17,
              "lat": 45.675075,
              "lon": 8.743954,
              "distance_from_previous_km": 14.71
            },
            {
              "station_name": "GALLARATE",
              "station_order": 18,
              "lat": 45.659828,
              "lon": 8.798243,
              "distance_from_previous_km": 6.37
            },
            {
              "station_name": "BUSTO ARSIZIO",
              "station_order": 19,
              "lat": 45.616164,
              "lon": 8.865031,
              "distance_from_previous_km": 3.06
            },
            {
              "station_name": "RHO FIERA MILANO",
              "station_order": 20,
              "lat": 45.521157,
              "lon": 9.088595,
              "distance_from_previous_km": 3.56
            },
            {
              "station_name": "MILANO PORTA GARIBALDI",
              "station_order": 21,
              "lat": 45.484917,
              "lon": 9.187683,
              "distance_from_previous_km": 4.27
            }
          ],
          "current_stop_index": 1
        },
        {
          "train_id": "FR_9700",
          "train_type": "high_speed",
          "current_station": null,
          "next_station": "DESENZANO",
          "current_edge": "SESTO S. GIOVANNI--MONZA",
          "position_km": 10.166666666666668,
          "speed_kmh": 120,
          "delay_sec": 0,
          "status": "en_route",
          "lat": 45.478697762873495,
          "lon": 9.634912795507523,
          "route": [
            {
              "station_name": "MILANO CENTRALE",
              "station_order": 4,
              "lat": 45.486347,
              "lon": 9.204528,
              "distance_from_previous_km": 209.48
            },
            {
              "station_name": "DESENZANO",
              "station_order": 7,
              "lat": 45.462677,
              "lon": 10.536322,
              "distance_from_previous_km": 31.46
            },
            {
              "station_name": "BRESCIA",
              "station_order": 8,
              "lat": 45.532315,
              "lon": 10.212828,
              "distance_from_previous_km": 4.33
            },
            {
              "station_name": "MILANO CENTRALE",
              "station_order": 9,
              "lat": 45.486347,
              "lon": 9.204528,
              "distance_from_previous_km": 12.46
            }
          ],
          "current_stop_index": 0
        },
        {
          "train_id": "REG_2816",
          "train_type": "regional",
          "current_station": null,
          "next_station": "MILANO CENTRALE",
          "current_edge": "SESTO S. GIOVANNI--MONZA",
          "position_km": 10.000000000000002,
          "speed_kmh": 80,
          "delay_sec": 723,
          "status": "en_route",
          "lat": 45.486347,
          "lon": 9.204528,
          "route": [
            {
              "station_name": "MILANO CENTRALE",
              "station_order": 1,
              "lat": 45.486347,
              "lon": 9.204528,
              "distance_from_previous_km": 6.05
            },
            {
              "station_name": "MILANO CENTRALE",
              "station_order": 1,
              "lat": 45.486347,
              "lon": 9.204528,
              "distance_from_previous_km": 3.06
            },
            {
              "station_name": "MILANO CENTRALE",
              "station_order": 1,
              "lat": 45.486347,
              "lon": 9.204528,
              "distance_from_previous_km": 0.0
            },
            {
              "station_name": "MILANO CENTRALE",
              "station_order": 1,
              "lat": 45.486347,
              "lon": 9.204528,
              "distance_from_previous_km": 0.0
            },
            {
              "station_name": "MONZA",
              "station_order": 2,
              "lat": 45.577789,
              "lon": 9.273253,
              "distance_from_previous_km": 3.33
            },
            {
              "station_name": "MONZA",
              "station_order": 2,
              "lat": 45.577789,
              "lon": 9.273253,
              "distance_from_previous_km": 2.45
            },
            {
              "station_name": "MONZA",
              "station_order": 2,
              "lat": 45.577789,
              "lon": 9.273253,
              "distance_from_previous_km": 11.934
            },
            {
              "station_name": "MONZA",
              "station_order": 2,
              "lat": 45.577789,
              "lon": 9.273253,
              "distance_from_previous_km": 11.934
            },
            {
              "station_name": "LECCO",
              "station_order": 3,
              "lat": 45.856471,
              "lon": 9.393638,
              "distance_from_previous_km": 3.03
            },
            {
              "station_name": "LECCO",
              "station_order": 3,
              "lat": 45.856471,
              "lon": 9.393638,
              "distance_from_previous_km": 3.28
            },
            {
              "station_name": "LECCO",
              "station_order": 3,
              "lat": 45.856471,
              "lon": 9.393638,
              "distance_from_previous_km": 36.794
            },
            {
              "station_name": "LECCO",
              "station_order": 3,
              "lat": 45.856471,
              "lon": 9.393638,
              "distance_from_previous_km": 36.794
            },
            {
              "station_name": "MANDELLO DEL LARIO",
              "station_order": 4,
              "lat": 45.915208,
              "lon": 9.322061,
              "distance_from_previous_km": 2.82
            },
            {
              "station_name": "MANDELLO DEL LARIO",
              "station_order": 4,
              "lat": 45.915208,
              "lon": 9.322061,
              "distance_from_previous_km": 9.441
            },
            {
              "station_name": "MANDELLO DEL LARIO",
              "station_order": 4,
              "lat": 45.915208,
              "lon": 9.322061,
              "distance_from_previous_km": 9.441
            },
            {
              "station_name": "VARENNA ESINO",
              "station_order": 5,
              "lat": 46.015,
              "lon": 9.286405,
              "distance_from_previous_km": 4.74
            },
            {
              "station_name": "VARENNA ESINO",
              "station_order": 5,
              "lat": 46.015,
              "lon": 9.286405,
              "distance_from_previous_km": 12.148
            },
            {
              "station_name": "VARENNA ESINO",
              "station_order": 5,
              "lat": 46.015,
              "lon": 9.286405,
              "distance_from_previous_km": 12.148
            },
            {
              "station_name": "BELLANO TARTAVELLE TERME",
              "station_order": 6,
              "lat": 46.039448,
              "lon": 9.302776,
              "distance_from_previous_km": 1.37
            },
            {
              "station_name": "BELLANO TARTAVELLE TERME",
              "station_order": 6,
              "lat": 46.039448,
              "lon": 9.302776,
              "distance_from_previous_km": 3.258
            },
            {
              "station_name": "BELLANO TARTAVELLE TERME",
              "station_order": 6,
              "lat": 46.039448,
              "lon": 9.302776,
              "distance_from_previous_km": 3.258
            },
            {
              "station_name": "COLICO",
              "station_order": 7,
              "lat": 46.138019,
              "lon": 9.375222,
              "distance_from_previous_km": 1.91
            },
            {
              "station_name": "COLICO",
              "station_order": 7,
              "lat": 46.138019,
              "lon": 9.375222,
              "distance_from_previous_km": 14.132
            },
            {
              "station_name": "COLICO",
              "station_order": 7,
              "lat": 46.138019,
              "lon": 9.375222,
              "distance_from_previous_km": 14.132
            },
            {
              "station_name": "MORBEGNO",
              "station_order": 8,
              "lat": 46.136663,
              "lon": 9.568646,
              "distance_from_previous_km": 15.395
            },
            {
              "station_name": "MORBEGNO",
              "station_order": 8,
              "lat": 46.136663,
              "lon": 9.568646,
              "distance_from_previous_km": 15.395
            },
            {
              "station_name": "SONDRIO",
              "station_order": 9,
              "lat": 46.167064,
              "lon": 9.872928,
              "distance_from_previous_km": 25.07
            },
            {
              "station_name": "SONDRIO",
              "station_order": 9,
              "lat": 46.167064,
              "lon": 9.872928,
              "distance_from_previous_km": 25.07
            },
            {
              "station_name": "TRESENDA-APRICA-TEGLIO",
              "station_order": 10,
              "lat": 46.162082,
              "lon": 10.083754,
              "distance_from_previous_km": 16.889
            },
            {
              "station_name": "TIRANO",
              "station_order": 11,
              "lat": 46.21539,
              "lon": 10.166961,
              "distance_from_previous_km": 9.068
            }
          ],
          "current_stop_index": 1
        },
        {
          "train_id": "REG_33132",
          "train_type": "regional",
          "current_station": null,
          "next_station": "COLICO",
          "current_edge": "SESTO S. GIOVANNI--MONZA",
          "position_km": 10.500000000000002,
          "speed_kmh": 80,
          "delay_sec": 181,
          "status": "en_route",
          "lat": 46.138019,
          "lon": 9.375222,
          "route": [
            {
              "station_name": "COLICO",
              "station_order": 1,
              "lat": 46.138019,
              "lon": 9.375222,
              "distance_from_previous_km": 2.09
            },
            {
              "station_name": "COLICO",
              "station_order": 1,
              "lat": 46.138019,
              "lon": 9.375222,
              "distance_from_previous_km": 0.0
            },
            {
              "station_name": "MORBEGNO",
              "station_order": 2,
              "lat": 46.136663,
              "lon": 9.568646,
              "distance_from_previous_km": 2.6
            },
            {
              "station_name": "MORBEGNO",
              "station_order": 2,
              "lat": 46.136663,
              "lon": 9.568646,
              "distance_from_previous_km": 15.395
            },
            {
              "station_name": "SONDRIO",
              "station_order": 3,
              "lat": 46.167064,
              "lon": 9.872928,
              "distance_from_previous_km": 1.93
            },
            {
              "station_name": "ARDENNO MASINO",
              "station_order": 3,
              "lat": 46.16198,
              "lon": 9.651374,
              "distance_from_previous_km": 7.547
            },
            {
              "station_name": "TIRANO",
              "station_order": 4,
              "lat": 46.21539,
              "lon": 10.166961,
              "distance_from_previous_km": 0.9
            },
            {
              "station_name": "SONDRIO",
              "station_order": 4,
              "lat": 46.167064,
              "lon": 9.872928,
              "distance_from_previous_km": 17.523
            },
            {
              "station_name": "TIRANO",
              "station_order": 5,
              "lat": 46.21539,
              "lon": 10.166961,
              "distance_from_previous_km": 25.957
            }
          ],
          "current_stop_index": 0
        }
      ],
      "network_context": {},
      "status": "unresolved"
    },
    {
      "metadata": {
        "conflict_id": "543671b0-7d42-428a-8cbc-bb40689784be",
        "timestamp": "2026-01-25T21:58:51.902009",
        "tick_number": 35,
        "simulation_time": "2026-01-25T06:35:00.459685"
      },
      "conflict": {
        "type": "edge_capacity_overflow",
        "severity": "medium",
        "probability": 1.0,
        "location": "VOGHERA--PAVIA",
        "location_type": "edge",
        "explanation": "ðŸš¨ EDGE OVERLOAD at VOGHERA--PAVIA | Trains involved: IC_1539, FR_9700, REG_2816 (+1 more) | Edge VOGHERA--PAVIA has 4 trains but capacity is 3. Overflow ratio: 1.3x",
        "resolution_suggestions": [
          "Hold trains at previous station",
          "Reroute via alternative track",
          "Reduce speed to create spacing"
        ]
      },
      "affected_trains": [
        {
          "train_id": "IC_1539",
          "train_type": "intercity",
          "current_station": null,
          "next_station": "PAVIA",
          "current_edge": "VOGHERA--PAVIA",
          "position_km": 6.0,
          "speed_kmh": 120,
          "delay_sec": 333,
          "status": "en_route",
          "lat": 45.045962100840335,
          "lon": 9.04241225210084,
          "route": [
            {
              "station_name": "VOGHERA",
              "station_order": 3,
              "lat": 44.9978,
              "lon": 9.007942,
              "distance_from_previous_km": 64.82
            },
            {
              "station_name": "PAVIA",
              "station_order": 4,
              "lat": 45.188843,
              "lon": 9.144674,
              "distance_from_previous_km": 23.8
            },
            {
              "station_name": "MILANO CENTRALE",
              "station_order": 5,
              "lat": 45.486347,
              "lon": 9.204528,
              "distance_from_previous_km": 33.4
            }
          ],
          "current_stop_index": 0
        },
        {
          "train_id": "FR_9700",
          "train_type": "high_speed",
          "current_station": null,
          "next_station": "DESENZANO",
          "current_edge": "VOGHERA--PAVIA",
          "position_km": 6.5,
          "speed_kmh": 120,
          "delay_sec": 0,
          "status": "en_route",
          "lat": 45.48145650413223,
          "lon": 9.479692049586777,
          "route": [
            {
              "station_name": "MILANO CENTRALE",
              "station_order": 4,
              "lat": 45.486347,
              "lon": 9.204528,
              "distance_from_previous_km": 209.48
            },
            {
              "station_name": "DESENZANO",
              "station_order": 7,
              "lat": 45.462677,
              "lon": 10.536322,
              "distance_from_previous_km": 31.46
            },
            {
              "station_name": "BRESCIA",
              "station_order": 8,
              "lat": 45.532315,
              "lon": 10.212828,
              "distance_from_previous_km": 4.33
            },
            {
              "station_name": "MILANO CENTRALE",
              "station_order": 9,
              "lat": 45.486347,
              "lon": 9.204528,
              "distance_from_previous_km": 12.46
            }
          ],
          "current_stop_index": 0
        },
        {
          "train_id": "REG_2816",
          "train_type": "regional",
          "current_station": null,
          "next_station": "MILANO CENTRALE",
          "current_edge": "VOGHERA--PAVIA",
          "position_km": 6.333333333333334,
          "speed_kmh": 80,
          "delay_sec": 761,
          "status": "en_route",
          "lat": 45.486347,
          "lon": 9.204528,
          "route": [
            {
              "station_name": "MILANO CENTRALE",
              "station_order": 1,
              "lat": 45.486347,
              "lon": 9.204528,
              "distance_from_previous_km": 6.05
            },
            {
              "station_name": "MILANO CENTRALE",
              "station_order": 1,
              "lat": 45.486347,
              "lon": 9.204528,
              "distance_from_previous_km": 3.06
            },
            {
              "station_name": "MILANO CENTRALE",
              "station_order": 1,
              "lat": 45.486347,
              "lon": 9.204528,
              "distance_from_previous_km": 0.0
            },
            {
              "station_name": "MILANO CENTRALE",
              "station_order": 1,
              "lat": 45.486347,
              "lon": 9.204528,
              "distance_from_previous_km": 0.0
            },
            {
              "station_name": "MONZA",
              "station_order": 2,
              "lat": 45.577789,
              "lon": 9.273253,
              "distance_from_previous_km": 3.33
            },
            {
              "station_name": "MONZA",
              "station_order": 2,
              "lat": 45.577789,
              "lon": 9.273253,
              "distance_from_previous_km": 2.45
            },
            {
              "station_name": "MONZA",
              "station_order": 2,
              "lat": 45.577789,
              "lon": 9.273253,
              "distance_from_previous_km": 11.934
            },
            {
              "station_name": "MONZA",
              "station_order": 2,
              "lat": 45.577789,
              "lon": 9.273253,
              "distance_from_previous_km": 11.934
            },
            {
              "station_name": "LECCO",
              "station_order": 3,
              "lat": 45.856471,
              "lon": 9.393638,
              "distance_from_previous_km": 3.03
            },
            {
              "station_name": "LECCO",
              "station_order": 3,
              "lat": 45.856471,
              "lon": 9.393638,
              "distance_from_previous_km": 3.28
            },
            {
              "station_name": "LECCO",
              "station_order": 3,
              "lat": 45.856471,
              "lon": 9.393638,
              "distance_from_previous_km": 36.794
            },
            {
              "station_name": "LECCO",
              "station_order": 3,
              "lat": 45.856471,
              "lon": 9.393638,
              "distance_from_previous_km": 36.794
            },
            {
              "station_name": "MANDELLO DEL LARIO",
              "station_order": 4,
              "lat": 45.915208,
              "lon": 9.322061,
              "distance_from_previous_km": 2.82
            },
            {
              "station_name": "MANDELLO DEL LARIO",
              "station_order": 4,
              "lat": 45.915208,
              "lon": 9.322061,
              "distance_from_previous_km": 9.441
            },
            {
              "station_name": "MANDELLO DEL LARIO",
              "station_order": 4,
              "lat": 45.915208,
              "lon": 9.322061,
              "distance_from_previous_km": 9.441
            },
            {
              "station_name": "VARENNA ESINO",
              "station_order": 5,
              "lat": 46.015,
              "lon": 9.286405,
              "distance_from_previous_km": 4.74
            },
            {
              "station_name": "VARENNA ESINO",
              "station_order": 5,
              "lat": 46.015,
              "lon": 9.286405,
              "distance_from_previous_km": 12.148
            },
            {
              "station_name": "VARENNA ESINO",
              "station_order": 5,
              "lat": 46.015,
              "lon": 9.286405,
              "distance_from_previous_km": 12.148
            },
            {
              "station_name": "BELLANO TARTAVELLE TERME",
              "station_order": 6,
              "lat": 46.039448,
              "lon": 9.302776,
              "distance_from_previous_km": 1.37
            },
            {
              "station_name": "BELLANO TARTAVELLE TERME",
              "station_order": 6,
              "lat": 46.039448,
              "lon": 9.302776,
              "distance_from_previous_km": 3.258
            },
            {
              "station_name": "BELLANO TARTAVELLE TERME",
              "station_order": 6,
              "lat": 46.039448,
              "lon": 9.302776,
              "distance_from_previous_km": 3.258
            },
            {
              "station_name": "COLICO",
              "station_order": 7,
              "lat": 46.138019,
              "lon": 9.375222,
              "distance_from_previous_km": 1.91
            },
            {
              "station_name": "COLICO",
              "station_order": 7,
              "lat": 46.138019,
              "lon": 9.375222,
              "distance_from_previous_km": 14.132
            },
            {
              "station_name": "COLICO",
              "station_order": 7,
              "lat": 46.138019,
              "lon": 9.375222,
              "distance_from_previous_km": 14.132
            },
            {
              "station_name": "MORBEGNO",
              "station_order": 8,
              "lat": 46.136663,
              "lon": 9.568646,
              "distance_from_previous_km": 15.395
            },
            {
              "station_name": "MORBEGNO",
              "station_order": 8,
              "lat": 46.136663,
              "lon": 9.568646,
              "distance_from_previous_km": 15.395
            },
            {
              "station_name": "SONDRIO",
              "station_order": 9,
              "lat": 46.167064,
              "lon": 9.872928,
              "distance_from_previous_km": 25.07
            },
            {
              "station_name": "SONDRIO",
              "station_order": 9,
              "lat": 46.167064,
              "lon": 9.872928,
              "distance_from_previous_km": 25.07
            },
            {
              "station_name": "TRESENDA-APRICA-TEGLIO",
              "station_order": 10,
              "lat": 46.162082,
              "lon": 10.083754,
              "distance_from_previous_km": 16.889
            },
            {
              "station_name": "TIRANO",
              "station_order": 11,
              "lat": 46.21539,
              "lon": 10.166961,
              "distance_from_previous_km": 9.068
            }
          ],
          "current_stop_index": 1
        },
        {
          "train_id": "REG_33132",
          "train_type": "regional",
          "current_station": null,
          "next_station": "COLICO",
          "current_edge": "VOGHERA--PAVIA",
          "position_km": 6.833333333333334,
          "speed_kmh": 80,
          "delay_sec": 181,
          "status": "en_route",
          "lat": 46.138019,
          "lon": 9.375222,
          "route": [
            {
              "station_name": "COLICO",
              "station_order": 1,
              "lat": 46.138019,
              "lon": 9.375222,
              "distance_from_previous_km": 2.09
            },
            {
              "station_name": "COLICO",
              "station_order": 1,
              "lat": 46.138019,
              "lon": 9.375222,
              "distance_from_previous_km": 0.0
            },
            {
              "station_name": "MORBEGNO",
              "station_order": 2,
              "lat": 46.136663,
              "lon": 9.568646,
              "distance_from_previous_km": 2.6
            },
            {
              "station_name": "MORBEGNO",
              "station_order": 2,
              "lat": 46.136663,
              "lon": 9.568646,
              "distance_from_previous_km": 15.395
            },
            {
              "station_name": "SONDRIO",
              "station_order": 3,
              "lat": 46.167064,
              "lon": 9.872928,
              "distance_from_previous_km": 1.93
            },
            {
              "station_name": "ARDENNO MASINO",
              "station_order": 3,
              "lat": 46.16198,
              "lon": 9.651374,
              "distance_from_previous_km": 7.547
            },
            {
              "station_name": "TIRANO",
              "station_order": 4,
              "lat": 46.21539,
              "lon": 10.166961,
              "distance_from_previous_km": 0.9
            },
            {
              "station_name": "SONDRIO",
              "station_order": 4,
              "lat": 46.167064,
              "lon": 9.872928,
              "distance_from_previous_km": 17.523
            },
            {
              "station_name": "TIRANO",
              "station_order": 5,
              "lat": 46.21539,
              "lon": 10.166961,
              "distance_from_previous_km": 25.957
            }
          ],
          "current_stop_index": 0
        }
      ],
      "network_context": {},
      "status": "unresolved"
    },
    {
      "metadata": {
        "conflict_id": "57e6049c-689a-434c-8487-15fe57ffe094",
        "timestamp": "2026-01-25T21:58:53.890818",
        "tick_number": 36,
        "simulation_time": "2026-01-25T06:36:00.459685"
      },
      "conflict": {
        "type": "edge_capacity_overflow",
        "severity": "medium",
        "probability": 1.0,
        "location": "VOGHERA--PAVIA",
        "location_type": "edge",
        "explanation": "ðŸš¨ EDGE OVERLOAD at VOGHERA--PAVIA | Trains involved: IC_1539, FR_9700, REG_2816 (+1 more) | Edge VOGHERA--PAVIA has 4 trains but capacity is 3. Overflow ratio: 1.3x",
        "resolution_suggestions": [
          "Hold trains at previous station",
          "Reroute via alternative track",
          "Reduce speed to create spacing"
        ]
      },
      "affected_trains": [
        {
          "train_id": "IC_1539",
          "train_type": "intercity",
          "current_station": null,
          "next_station": "PAVIA",
          "current_edge": "VOGHERA--PAVIA",
          "position_km": 8.0,
          "speed_kmh": 120,
          "delay_sec": 333,
          "status": "en_route",
          "lat": 45.06201613445378,
          "lon": 9.053902336134454,
          "route": [
            {
              "station_name": "VOGHERA",
              "station_order": 3,
              "lat": 44.9978,
              "lon": 9.007942,
              "distance_from_previous_km": 64.82
            },
            {
              "station_name": "PAVIA",
              "station_order": 4,
              "lat": 45.188843,
              "lon": 9.144674,
              "distance_from_previous_km": 23.8
            },
            {
              "station_name": "MILANO CENTRALE",
              "station_order": 5,
              "lat": 45.486347,
              "lon": 9.204528,
              "distance_from_previous_km": 33.4
            }
          ],
          "current_stop_index": 0
        },
        {
          "train_id": "FR_9700",
          "train_type": "high_speed",
          "current_station": null,
          "next_station": "DESENZANO",
          "current_edge": "VOGHERA--PAVIA",
          "position_km": 8.5,
          "speed_kmh": 120,
          "delay_sec": 0,
          "status": "en_route",
          "lat": 45.47995173617292,
          "lon": 9.564357910998092,
          "route": [
            {
              "station_name": "MILANO CENTRALE",
              "station_order": 4,
              "lat": 45.486347,
              "lon": 9.204528,
              "distance_from_previous_km": 209.48
            },
            {
              "station_name": "DESENZANO",
              "station_order": 7,
              "lat": 45.462677,
              "lon": 10.536322,
              "distance_from_previous_km": 31.46
            },
            {
              "station_name": "BRESCIA",
              "station_order": 8,
              "lat": 45.532315,
              "lon": 10.212828,
              "distance_from_previous_km": 4.33
            },
            {
              "station_name": "MILANO CENTRALE",
              "station_order": 9,
              "lat": 45.486347,
              "lon": 9.204528,
              "distance_from_previous_km": 12.46
            }
          ],
          "current_stop_index": 0
        },
        {
          "train_id": "REG_2816",
          "train_type": "regional",
          "current_station": null,
          "next_station": "MILANO CENTRALE",
          "current_edge": "VOGHERA--PAVIA",
          "position_km": 7.666666666666668,
          "speed_kmh": 80,
          "delay_sec": 761,
          "status": "en_route",
          "lat": 45.486347,
          "lon": 9.204528,
          "route": [
            {
              "station_name": "MILANO CENTRALE",
              "station_order": 1,
              "lat": 45.486347,
              "lon": 9.204528,
              "distance_from_previous_km": 6.05
            },
            {
              "station_name": "MILANO CENTRALE",
              "station_order": 1,
              "lat": 45.486347,
              "lon": 9.204528,
              "distance_from_previous_km": 3.06
            },
            {
              "station_name": "MILANO CENTRALE",
              "station_order": 1,
              "lat": 45.486347,
              "lon": 9.204528,
              "distance_from_previous_km": 0.0
            },
            {
              "station_name": "MILANO CENTRALE",
              "station_order": 1,
              "lat": 45.486347,
              "lon": 9.204528,
              "distance_from_previous_km": 0.0
            },
            {
              "station_name": "MONZA",
              "station_order": 2,
              "lat": 45.577789,
              "lon": 9.273253,
              "distance_from_previous_km": 3.33
            },
            {
              "station_name": "MONZA",
              "station_order": 2,
              "lat": 45.577789,
              "lon": 9.273253,
              "distance_from_previous_km": 2.45
            },
            {
              "station_name": "MONZA",
              "station_order": 2,
              "lat": 45.577789,
              "lon": 9.273253,
              "distance_from_previous_km": 11.934
            },
            {
              "station_name": "MONZA",
              "station_order": 2,
              "lat": 45.577789,
              "lon": 9.273253,
              "distance_from_previous_km": 11.934
            },
            {
              "station_name": "LECCO",
              "station_order": 3,
              "lat": 45.856471,
              "lon": 9.393638,
              "distance_from_previous_km": 3.03
            },
            {
              "station_name": "LECCO",
              "station_order": 3,
              "lat": 45.856471,
              "lon": 9.393638,
              "distance_from_previous_km": 3.28
            },
            {
              "station_name": "LECCO",
              "station_order": 3,
              "lat": 45.856471,
              "lon": 9.393638,
              "distance_from_previous_km": 36.794
            },
            {
              "station_name": "LECCO",
              "station_order": 3,
              "lat": 45.856471,
              "lon": 9.393638,
              "distance_from_previous_km": 36.794
            },
            {
              "station_name": "MANDELLO DEL LARIO",
              "station_order": 4,
              "lat": 45.915208,
              "lon": 9.322061,
              "distance_from_previous_km": 2.82
            },
            {
              "station_name": "MANDELLO DEL LARIO",
              "station_order": 4,
              "lat": 45.915208,
              "lon": 9.322061,
              "distance_from_previous_km": 9.441
            },
            {
              "station_name": "MANDELLO DEL LARIO",
              "station_order": 4,
              "lat": 45.915208,
              "lon": 9.322061,
              "distance_from_previous_km": 9.441
            },
            {
              "station_name": "VARENNA ESINO",
              "station_order": 5,
              "lat": 46.015,
              "lon": 9.286405,
              "distance_from_previous_km": 4.74
            },
            {
              "station_name": "VARENNA ESINO",
              "station_order": 5,
              "lat": 46.015,
              "lon": 9.286405,
              "distance_from_previous_km": 12.148
            },
            {
              "station_name": "VARENNA ESINO",
              "station_order": 5,
              "lat": 46.015,
              "lon": 9.286405,
              "distance_from_previous_km": 12.148
            },
            {
              "station_name": "BELLANO TARTAVELLE TERME",
              "station_order": 6,
              "lat": 46.039448,
              "lon": 9.302776,
              "distance_from_previous_km": 1.37
            },
            {
              "station_name": "BELLANO TARTAVELLE TERME",
              "station_order": 6,
              "lat": 46.039448,
              "lon": 9.302776,
              "distance_from_previous_km": 3.258
            },
            {
              "station_name": "BELLANO TARTAVELLE TERME",
              "station_order": 6,
              "lat": 46.039448,
              "lon": 9.302776,
              "distance_from_previous_km": 3.258
            },
            {
              "station_name": "COLICO",
              "station_order": 7,
              "lat": 46.138019,
              "lon": 9.375222,
              "distance_from_previous_km": 1.91
            },
            {
              "station_name": "COLICO",
              "station_order": 7,
              "lat": 46.138019,
              "lon": 9.375222,
              "distance_from_previous_km": 14.132
            },
            {
              "station_name": "COLICO",
              "station_order": 7,
              "lat": 46.138019,
              "lon": 9.375222,
              "distance_from_previous_km": 14.132
            },
            {
              "station_name": "MORBEGNO",
              "station_order": 8,
              "lat": 46.136663,
              "lon": 9.568646,
              "distance_from_previous_km": 15.395
            },
            {
              "station_name": "MORBEGNO",
              "station_order": 8,
              "lat": 46.136663,
              "lon": 9.568646,
              "distance_from_previous_km": 15.395
            },
            {
              "station_name": "SONDRIO",
              "station_order": 9,
              "lat": 46.167064,
              "lon": 9.872928,
              "distance_from_previous_km": 25.07
            },
            {
              "station_name": "SONDRIO",
              "station_order": 9,
              "lat": 46.167064,
              "lon": 9.872928,
              "distance_from_previous_km": 25.07
            },
            {
              "station_name": "TRESENDA-APRICA-TEGLIO",
              "station_order": 10,
              "lat": 46.162082,
              "lon": 10.083754,
              "distance_from_previous_km": 16.889
            },
            {
              "station_name": "TIRANO",
              "station_order": 11,
              "lat": 46.21539,
              "lon": 10.166961,
              "distance_from_previous_km": 9.068
            }
          ],
          "current_stop_index": 1
        },
        {
          "train_id": "REG_33132",
          "train_type": "regional",
          "current_station": null,
          "next_station": "COLICO",
          "current_edge": "VOGHERA--PAVIA",
          "position_km": 8.166666666666668,
          "speed_kmh": 80,
          "delay_sec": 181,
          "status": "en_route",
          "lat": 46.138019,
          "lon": 9.375222,
          "route": [
            {
              "station_name": "COLICO",
              "station_order": 1,
              "lat": 46.138019,
              "lon": 9.375222,
              "distance_from_previous_km": 2.09
            },
            {
              "station_name": "COLICO",
              "station_order": 1,
              "lat": 46.138019,
              "lon": 9.375222,
              "distance_from_previous_km": 0.0
            },
            {
              "station_name": "MORBEGNO",
              "station_order": 2,
              "lat": 46.136663,
              "lon": 9.568646,
              "distance_from_previous_km": 2.6
            },
            {
              "station_name": "MORBEGNO",
              "station_order": 2,
              "lat": 46.136663,
              "lon": 9.568646,
              "distance_from_previous_km": 15.395
            },
            {
              "station_name": "SONDRIO",
              "station_order": 3,
              "lat": 46.167064,
              "lon": 9.872928,
              "distance_from_previous_km": 1.93
            },
            {
              "station_name": "ARDENNO MASINO",
              "station_order": 3,
              "lat": 46.16198,
              "lon": 9.651374,
              "distance_from_previous_km": 7.547
            },
            {
              "station_name": "TIRANO",
              "station_order": 4,
              "lat": 46.21539,
              "lon": 10.166961,
              "distance_from_previous_km": 0.9
            },
            {
              "station_name": "SONDRIO",
              "station_order": 4,
              "lat": 46.167064,
              "lon": 9.872928,
              "distance_from_previous_km": 17.523
            },
            {
              "station_name": "TIRANO",
              "station_order": 5,
              "lat": 46.21539,
              "lon": 10.166961,
              "distance_from_previous_km": 25.957
            }
          ],
          "current_stop_index": 0
        }
      ],
      "network_context": {},
      "status": "unresolved"
    },
    {
      "metadata": {
        "conflict_id": "8c24304c-6405-461d-8271-5b971196bece",
        "timestamp": "2026-01-25T21:58:55.906860",
        "tick_number": 37,
        "simulation_time": "2026-01-25T06:37:00.459685"
      },
      "conflict": {
        "type": "edge_capacity_overflow",
        "severity": "medium",
        "probability": 1.0,
        "location": "VOGHERA--PAVIA",
        "location_type": "edge",
        "explanation": "ðŸš¨ EDGE OVERLOAD at VOGHERA--PAVIA | Trains involved: IC_1539, FR_9700, REG_2816 (+1 more) | Edge VOGHERA--PAVIA has 4 trains but capacity is 3. Overflow ratio: 1.3x",
        "resolution_suggestions": [
          "Hold trains at previous station",
          "Reroute via alternative track",
          "Reduce speed to create spacing"
        ]
      },
      "affected_trains": [
        {
          "train_id": "IC_1539",
          "train_type": "intercity",
          "current_station": null,
          "next_station": "PAVIA",
          "current_edge": "VOGHERA--PAVIA",
          "position_km": 10.0,
          "speed_kmh": 120,
          "delay_sec": 333,
          "status": "en_route",
          "lat": 45.07807016806723,
          "lon": 9.065392420168067,
          "route": [
            {
              "station_name": "VOGHERA",
              "station_order": 3,
              "lat": 44.9978,
              "lon": 9.007942,
              "distance_from_previous_km": 64.82
            },
            {
              "station_name": "PAVIA",
              "station_order": 4,
              "lat": 45.188843,
              "lon": 9.144674,
              "distance_from_previous_km": 23.8
            },
            {
              "station_name": "MILANO CENTRALE",
              "station_order": 5,
              "lat": 45.486347,
              "lon": 9.204528,
              "distance_from_previous_km": 33.4
            }
          ],
          "current_stop_index": 0
        },
        {
          "train_id": "FR_9700",
          "train_type": "high_speed",
          "current_station": null,
          "next_station": "DESENZANO",
          "current_edge": "VOGHERA--PAVIA",
          "position_km": 10.5,
          "speed_kmh": 120,
          "delay_sec": 0,
          "status": "en_route",
          "lat": 45.4784469682136,
          "lon": 9.649023772409409,
          "route": [
            {
              "station_name": "MILANO CENTRALE",
              "station_order": 4,
              "lat": 45.486347,
              "lon": 9.204528,
              "distance_from_previous_km": 209.48
            },
            {
              "station_name": "DESENZANO",
              "station_order": 7,
              "lat": 45.462677,
              "lon": 10.536322,
              "distance_from_previous_km": 31.46
            },
            {
              "station_name": "BRESCIA",
              "station_order": 8,
              "lat": 45.532315,
              "lon": 10.212828,
              "distance_from_previous_km": 4.33
            },
            {
              "station_name": "MILANO CENTRALE",
              "station_order": 9,
              "lat": 45.486347,
              "lon": 9.204528,
              "distance_from_previous_km": 12.46
            }
          ],
          "current_stop_index": 0
        },
        {
          "train_id": "REG_2816",
          "train_type": "regional",
          "current_station": null,
          "next_station": "MILANO CENTRALE",
          "current_edge": "VOGHERA--PAVIA",
          "position_km": 9.000000000000002,
          "speed_kmh": 80,
          "delay_sec": 761,
          "status": "en_route",
          "lat": 45.486347,
          "lon": 9.204528,
          "route": [
            {
              "station_name": "MILANO CENTRALE",
              "station_order": 1,
              "lat": 45.486347,
              "lon": 9.204528,
              "distance_from_previous_km": 6.05
            },
            {
              "station_name": "MILANO CENTRALE",
              "station_order": 1,
              "lat": 45.486347,
              "lon": 9.204528,
              "distance_from_previous_km": 3.06
            },
            {
              "station_name": "MILANO CENTRALE",
              "station_order": 1,
              "lat": 45.486347,
              "lon": 9.204528,
              "distance_from_previous_km": 0.0
            },
            {
              "station_name": "MILANO CENTRALE",
              "station_order": 1,
              "lat": 45.486347,
              "lon": 9.204528,
              "distance_from_previous_km": 0.0
            },
            {
              "station_name": "MONZA",
              "station_order": 2,
              "lat": 45.577789,
              "lon": 9.273253,
              "distance_from_previous_km": 3.33
            },
            {
              "station_name": "MONZA",
              "station_order": 2,
              "lat": 45.577789,
              "lon": 9.273253,
              "distance_from_previous_km": 2.45
            },
            {
              "station_name": "MONZA",
              "station_order": 2,
              "lat": 45.577789,
              "lon": 9.273253,
              "distance_from_previous_km": 11.934
            },
            {
              "station_name": "MONZA",
              "station_order": 2,
              "lat": 45.577789,
              "lon": 9.273253,
              "distance_from_previous_km": 11.934
            },
            {
              "station_name": "LECCO",
              "station_order": 3,
              "lat": 45.856471,
              "lon": 9.393638,
              "distance_from_previous_km": 3.03
            },
            {
              "station_name": "LECCO",
              "station_order": 3,
              "lat": 45.856471,
              "lon": 9.393638,
              "distance_from_previous_km": 3.28
            },
            {
              "station_name": "LECCO",
              "station_order": 3,
              "lat": 45.856471,
              "lon": 9.393638,
              "distance_from_previous_km": 36.794
            },
            {
              "station_name": "LECCO",
              "station_order": 3,
              "lat": 45.856471,
              "lon": 9.393638,
              "distance_from_previous_km": 36.794
            },
            {
              "station_name": "MANDELLO DEL LARIO",
              "station_order": 4,
              "lat": 45.915208,
              "lon": 9.322061,
              "distance_from_previous_km": 2.82
            },
            {
              "station_name": "MANDELLO DEL LARIO",
              "station_order": 4,
              "lat": 45.915208,
              "lon": 9.322061,
              "distance_from_previous_km": 9.441
            },
            {
              "station_name": "MANDELLO DEL LARIO",
              "station_order": 4,
              "lat": 45.915208,
              "lon": 9.322061,
              "distance_from_previous_km": 9.441
            },
            {
              "station_name": "VARENNA ESINO",
              "station_order": 5,
              "lat": 46.015,
              "lon": 9.286405,
              "distance_from_previous_km": 4.74
            },
            {
              "station_name": "VARENNA ESINO",
              "station_order": 5,
              "lat": 46.015,
              "lon": 9.286405,
              "distance_from_previous_km": 12.148
            },
            {
              "station_name": "VARENNA ESINO",
              "station_order": 5,
              "lat": 46.015,
              "lon": 9.286405,
              "distance_from_previous_km": 12.148
            },
            {
              "station_name": "BELLANO TARTAVELLE TERME",
              "station_order": 6,
              "lat": 46.039448,
              "lon": 9.302776,
              "distance_from_previous_km": 1.37
            },
            {
              "station_name": "BELLANO TARTAVELLE TERME",
              "station_order": 6,
              "lat": 46.039448,
              "lon": 9.302776,
              "distance_from_previous_km": 3.258
            },
            {
              "station_name": "BELLANO TARTAVELLE TERME",
              "station_order": 6,
              "lat": 46.039448,
              "lon": 9.302776,
              "distance_from_previous_km": 3.258
            },
            {
              "station_name": "COLICO",
              "station_order": 7,
              "lat": 46.138019,
              "lon": 9.375222,
              "distance_from_previous_km": 1.91
            },
            {
              "station_name": "COLICO",
              "station_order": 7,
              "lat": 46.138019,
              "lon": 9.375222,
              "distance_from_previous_km": 14.132
            },
            {
              "station_name": "COLICO",
              "station_order": 7,
              "lat": 46.138019,
              "lon": 9.375222,
              "distance_from_previous_km": 14.132
            },
            {
              "station_name": "MORBEGNO",
              "station_order": 8,
              "lat": 46.136663,
              "lon": 9.568646,
              "distance_from_previous_km": 15.395
            },
            {
              "station_name": "MORBEGNO",
              "station_order": 8,
              "lat": 46.136663,
              "lon": 9.568646,
              "distance_from_previous_km": 15.395
            },
            {
              "station_name": "SONDRIO",
              "station_order": 9,
              "lat": 46.167064,
              "lon": 9.872928,
              "distance_from_previous_km": 25.07
            },
            {
              "station_name": "SONDRIO",
              "station_order": 9,
              "lat": 46.167064,
              "lon": 9.872928,
              "distance_from_previous_km": 25.07
            },
            {
              "station_name": "TRESENDA-APRICA-TEGLIO",
              "station_order": 10,
              "lat": 46.162082,
              "lon": 10.083754,
              "distance_from_previous_km": 16.889
            },
            {
              "station_name": "TIRANO",
              "station_order": 11,
              "lat": 46.21539,
              "lon": 10.166961,
              "distance_from_previous_km": 9.068
            }
          ],
          "current_stop_index": 1
        },
        {
          "train_id": "REG_33132",
          "train_type": "regional",
          "current_station": null,
          "next_station": "COLICO",
          "current_edge": "VOGHERA--PAVIA",
          "position_km": 9.500000000000002,
          "speed_kmh": 80,
          "delay_sec": 181,
          "status": "en_route",
          "lat": 46.138019,
          "lon": 9.375222,
          "route": [
            {
              "station_name": "COLICO",
              "station_order": 1,
              "lat": 46.138019,
              "lon": 9.375222,
              "distance_from_previous_km": 2.09
            },
            {
              "station_name": "COLICO",
              "station_order": 1,
              "lat": 46.138019,
              "lon": 9.375222,
              "distance_from_previous_km": 0.0
            },
            {
              "station_name": "MORBEGNO",
              "station_order": 2,
              "lat": 46.136663,
              "lon": 9.568646,
              "distance_from_previous_km": 2.6
            },
            {
              "station_name": "MORBEGNO",
              "station_order": 2,
              "lat": 46.136663,
              "lon": 9.568646,
              "distance_from_previous_km": 15.395
            },
            {
              "station_name": "SONDRIO",
              "station_order": 3,
              "lat": 46.167064,
              "lon": 9.872928,
              "distance_from_previous_km": 1.93
            },
            {
              "station_name": "ARDENNO MASINO",
              "station_order": 3,
              "lat": 46.16198,
              "lon": 9.651374,
              "distance_from_previous_km": 7.547
            },
            {
              "station_name": "TIRANO",
              "station_order": 4,
              "lat": 46.21539,
              "lon": 10.166961,
              "distance_from_previous_km": 0.9
            },
            {
              "station_name": "SONDRIO",
              "station_order": 4,
              "lat": 46.167064,
              "lon": 9.872928,
              "distance_from_previous_km": 17.523
            },
            {
              "station_name": "TIRANO",
              "station_order": 5,
              "lat": 46.21539,
              "lon": 10.166961,
              "distance_from_previous_km": 25.957
            }
          ],
          "current_stop_index": 0
        }
      ],
      "network_context": {},
      "status": "unresolved"
    },
    {
      "metadata": {
        "conflict_id": "21847ebd-e788-4b82-9ce0-62ba71b25b91",
        "timestamp": "2026-01-25T21:58:57.720318",
        "tick_number": 38,
        "simulation_time": "2026-01-25T06:38:00.459685"
      },
      "conflict": {
        "type": "edge_capacity_overflow",
        "severity": "medium",
        "probability": 1.0,
        "location": "VOGHERA--PAVIA",
        "location_type": "edge",
        "explanation": "ðŸš¨ EDGE OVERLOAD at VOGHERA--PAVIA | Trains involved: IC_1539, FR_9700, REG_2816 (+1 more) | Edge VOGHERA--PAVIA has 4 trains but capacity is 3. Overflow ratio: 1.3x",
        "resolution_suggestions": [
          "Hold trains at previous station",
          "Reroute via alternative track",
          "Reduce speed to create spacing"
        ]
      },
      "affected_trains": [
        {
          "train_id": "IC_1539",
          "train_type": "intercity",
          "current_station": null,
          "next_station": "PAVIA",
          "current_edge": "VOGHERA--PAVIA",
          "position_km": 12.0,
          "speed_kmh": 120,
          "delay_sec": 333,
          "status": "en_route",
          "lat": 45.09412420168067,
          "lon": 9.07688250420168,
          "route": [
            {
              "station_name": "VOGHERA",
              "station_order": 3,
              "lat": 44.9978,
              "lon": 9.007942,
              "distance_from_previous_km": 64.82
            },
            {
              "station_name": "PAVIA",
              "station_order": 4,
              "lat": 45.188843,
              "lon": 9.144674,
              "distance_from_previous_km": 23.8
            },
            {
              "station_name": "MILANO CENTRALE",
              "station_order": 5,
              "lat": 45.486347,
              "lon": 9.204528,
              "distance_from_previous_km": 33.4
            }
          ],
          "current_stop_index": 0
        },
        {
          "train_id": "FR_9700",
          "train_type": "high_speed",
          "current_station": null,
          "next_station": "DESENZANO",
          "current_edge": "VOGHERA--PAVIA",
          "position_km": 12.5,
          "speed_kmh": 120,
          "delay_sec": 0,
          "status": "en_route",
          "lat": 45.47694220025429,
          "lon": 9.733689633820724,
          "route": [
            {
              "station_name": "MILANO CENTRALE",
              "station_order": 4,
              "lat": 45.486347,
              "lon": 9.204528,
              "distance_from_previous_km": 209.48
            },
            {
              "station_name": "DESENZANO",
              "station_order": 7,
              "lat": 45.462677,
              "lon": 10.536322,
              "distance_from_previous_km": 31.46
            },
            {
              "station_name": "BRESCIA",
              "station_order": 8,
              "lat": 45.532315,
              "lon": 10.212828,
              "distance_from_previous_km": 4.33
            },
            {
              "station_name": "MILANO CENTRALE",
              "station_order": 9,
              "lat": 45.486347,
              "lon": 9.204528,
              "distance_from_previous_km": 12.46
            }
          ],
          "current_stop_index": 0
        },
        {
          "train_id": "REG_2816",
          "train_type": "regional",
          "current_station": null,
          "next_station": "MILANO CENTRALE",
          "current_edge": "VOGHERA--PAVIA",
          "position_km": 10.333333333333336,
          "speed_kmh": 80,
          "delay_sec": 761,
          "status": "en_route",
          "lat": 45.486347,
          "lon": 9.204528,
          "route": [
            {
              "station_name": "MILANO CENTRALE",
              "station_order": 1,
              "lat": 45.486347,
              "lon": 9.204528,
              "distance_from_previous_km": 6.05
            },
            {
              "station_name": "MILANO CENTRALE",
              "station_order": 1,
              "lat": 45.486347,
              "lon": 9.204528,
              "distance_from_previous_km": 3.06
            },
            {
              "station_name": "MILANO CENTRALE",
              "station_order": 1,
              "lat": 45.486347,
              "lon": 9.204528,
              "distance_from_previous_km": 0.0
            },
            {
              "station_name": "MILANO CENTRALE",
              "station_order": 1,
              "lat": 45.486347,
              "lon": 9.204528,
              "distance_from_previous_km": 0.0
            },
            {
              "station_name": "MONZA",
              "station_order": 2,
              "lat": 45.577789,
              "lon": 9.273253,
              "distance_from_previous_km": 3.33
            },
            {
              "station_name": "MONZA",
              "station_order": 2,
              "lat": 45.577789,
              "lon": 9.273253,
              "distance_from_previous_km": 2.45
            },
            {
              "station_name": "MONZA",
              "station_order": 2,
              "lat": 45.577789,
              "lon": 9.273253,
              "distance_from_previous_km": 11.934
            },
            {
              "station_name": "MONZA",
              "station_order": 2,
              "lat": 45.577789,
              "lon": 9.273253,
              "distance_from_previous_km": 11.934
            },
            {
              "station_name": "LECCO",
              "station_order": 3,
              "lat": 45.856471,
              "lon": 9.393638,
              "distance_from_previous_km": 3.03
            },
            {
              "station_name": "LECCO",
              "station_order": 3,
              "lat": 45.856471,
              "lon": 9.393638,
              "distance_from_previous_km": 3.28
            },
            {
              "station_name": "LECCO",
              "station_order": 3,
              "lat": 45.856471,
              "lon": 9.393638,
              "distance_from_previous_km": 36.794
            },
            {
              "station_name": "LECCO",
              "station_order": 3,
              "lat": 45.856471,
              "lon": 9.393638,
              "distance_from_previous_km": 36.794
            },
            {
              "station_name": "MANDELLO DEL LARIO",
              "station_order": 4,
              "lat": 45.915208,
              "lon": 9.322061,
              "distance_from_previous_km": 2.82
            },
            {
              "station_name": "MANDELLO DEL LARIO",
              "station_order": 4,
              "lat": 45.915208,
              "lon": 9.322061,
              "distance_from_previous_km": 9.441
            },
            {
              "station_name": "MANDELLO DEL LARIO",
              "station_order": 4,
              "lat": 45.915208,
              "lon": 9.322061,
              "distance_from_previous_km": 9.441
            },
            {
              "station_name": "VARENNA ESINO",
              "station_order": 5,
              "lat": 46.015,
              "lon": 9.286405,
              "distance_from_previous_km": 4.74
            },
            {
              "station_name": "VARENNA ESINO",
              "station_order": 5,
              "lat": 46.015,
              "lon": 9.286405,
              "distance_from_previous_km": 12.148
            },
            {
              "station_name": "VARENNA ESINO",
              "station_order": 5,
              "lat": 46.015,
              "lon": 9.286405,
              "distance_from_previous_km": 12.148
            },
            {
              "station_name": "BELLANO TARTAVELLE TERME",
              "station_order": 6,
              "lat": 46.039448,
              "lon": 9.302776,
              "distance_from_previous_km": 1.37
            },
            {
              "station_name": "BELLANO TARTAVELLE TERME",
              "station_order": 6,
              "lat": 46.039448,
              "lon": 9.302776,
              "distance_from_previous_km": 3.258
            },
            {
              "station_name": "BELLANO TARTAVELLE TERME",
              "station_order": 6,
              "lat": 46.039448,
              "lon": 9.302776,
              "distance_from_previous_km": 3.258
            },
            {
              "station_name": "COLICO",
              "station_order": 7,
              "lat": 46.138019,
              "lon": 9.375222,
              "distance_from_previous_km": 1.91
            },
            {
              "station_name": "COLICO",
              "station_order": 7,
              "lat": 46.138019,
              "lon": 9.375222,
              "distance_from_previous_km": 14.132
            },
            {
              "station_name": "COLICO",
              "station_order": 7,
              "lat": 46.138019,
              "lon": 9.375222,
              "distance_from_previous_km": 14.132
            },
            {
              "station_name": "MORBEGNO",
              "station_order": 8,
              "lat": 46.136663,
              "lon": 9.568646,
              "distance_from_previous_km": 15.395
            },
            {
              "station_name": "MORBEGNO",
              "station_order": 8,
              "lat": 46.136663,
              "lon": 9.568646,
              "distance_from_previous_km": 15.395
            },
            {
              "station_name": "SONDRIO",
              "station_order": 9,
              "lat": 46.167064,
              "lon": 9.872928,
              "distance_from_previous_km": 25.07
            },
            {
              "station_name": "SONDRIO",
              "station_order": 9,
              "lat": 46.167064,
              "lon": 9.872928,
              "distance_from_previous_km": 25.07
            },
            {
              "station_name": "TRESENDA-APRICA-TEGLIO",
              "station_order": 10,
              "lat": 46.162082,
              "lon": 10.083754,
              "distance_from_previous_km": 16.889
            },
            {
              "station_name": "TIRANO",
              "station_order": 11,
              "lat": 46.21539,
              "lon": 10.166961,
              "distance_from_previous_km": 9.068
            }
          ],
          "current_stop_index": 1
        },
        {
          "train_id": "REG_33132",
          "train_type": "regional",
          "current_station": null,
          "next_station": "COLICO",
          "current_edge": "VOGHERA--PAVIA",
          "position_km": 10.833333333333336,
          "speed_kmh": 80,
          "delay_sec": 181,
          "status": "en_route",
          "lat": 46.138019,
          "lon": 9.375222,
          "route": [
            {
              "station_name": "COLICO",
              "station_order": 1,
              "lat": 46.138019,
              "lon": 9.375222,
              "distance_from_previous_km": 2.09
            },
            {
              "station_name": "COLICO",
              "station_order": 1,
              "lat": 46.138019,
              "lon": 9.375222,
              "distance_from_previous_km": 0.0
            },
            {
              "station_name": "MORBEGNO",
              "station_order": 2,
              "lat": 46.136663,
              "lon": 9.568646,
              "distance_from_previous_km": 2.6
            },
            {
              "station_name": "MORBEGNO",
              "station_order": 2,
              "lat": 46.136663,
              "lon": 9.568646,
              "distance_from_previous_km": 15.395
            },
            {
              "station_name": "SONDRIO",
              "station_order": 3,
              "lat": 46.167064,
              "lon": 9.872928,
              "distance_from_previous_km": 1.93
            },
            {
              "station_name": "ARDENNO MASINO",
              "station_order": 3,
              "lat": 46.16198,
              "lon": 9.651374,
              "distance_from_previous_km": 7.547
            },
            {
              "station_name": "TIRANO",
              "station_order": 4,
              "lat": 46.21539,
              "lon": 10.166961,
              "distance_from_previous_km": 0.9
            },
            {
              "station_name": "SONDRIO",
              "station_order": 4,
              "lat": 46.167064,
              "lon": 9.872928,
              "distance_from_previous_km": 17.523
            },
            {
              "station_name": "TIRANO",
              "station_order": 5,
              "lat": 46.21539,
              "lon": 10.166961,
              "distance_from_previous_km": 25.957
            }
          ],
          "current_stop_index": 0
        }
      ],
      "network_context": {},
      "status": "unresolved"
    },
    {
      "metadata": {
        "conflict_id": "6f18bfc7-70dc-4e70-9fdd-eeda17d67cc4",
        "timestamp": "2026-01-25T21:58:59.401350",
        "tick_number": 39,
        "simulation_time": "2026-01-25T06:39:00.459685"
      },
      "conflict": {
        "type": "edge_capacity_overflow",
        "severity": "medium",
        "probability": 1.0,
        "location": "VOGHERA--PAVIA",
        "location_type": "edge",
        "explanation": "ðŸš¨ EDGE OVERLOAD at VOGHERA--PAVIA | Trains involved: IC_1539, FR_9700, REG_2816 (+1 more) | Edge VOGHERA--PAVIA has 4 trains but capacity is 3. Overflow ratio: 1.3x",
        "resolution_suggestions": [
          "Hold trains at previous station",
          "Reroute via alternative track",
          "Reduce speed to create spacing"
        ]
      },
      "affected_trains": [
        {
          "train_id": "IC_1539",
          "train_type": "intercity",
          "current_station": null,
          "next_station": "PAVIA",
          "current_edge": "VOGHERA--PAVIA",
          "position_km": 14.0,
          "speed_kmh": 120,
          "delay_sec": 333,
          "status": "en_route",
          "lat": 45.110178235294114,
          "lon": 9.088372588235295,
          "route": [
            {
              "station_name": "VOGHERA",
              "station_order": 3,
              "lat": 44.9978,
              "lon": 9.007942,
              "distance_from_previous_km": 64.82
            },
            {
              "station_name": "PAVIA",
              "station_order": 4,
              "lat": 45.188843,
              "lon": 9.144674,
              "distance_from_previous_km": 23.8
            },
            {
              "station_name": "MILANO CENTRALE",
              "station_order": 5,
              "lat": 45.486347,
              "lon": 9.204528,
              "distance_from_previous_km": 33.4
            }
          ],
          "current_stop_index": 0
        },
        {
          "train_id": "FR_9700",
          "train_type": "high_speed",
          "current_station": null,
          "next_station": "DESENZANO",
          "current_edge": "VOGHERA--PAVIA",
          "position_km": 14.5,
          "speed_kmh": 120,
          "delay_sec": 0,
          "status": "en_route",
          "lat": 45.47543743229498,
          "lon": 9.81835549523204,
          "route": [
            {
              "station_name": "MILANO CENTRALE",
              "station_order": 4,
              "lat": 45.486347,
              "lon": 9.204528,
              "distance_from_previous_km": 209.48
            },
            {
              "station_name": "DESENZANO",
              "station_order": 7,
              "lat": 45.462677,
              "lon": 10.536322,
              "distance_from_previous_km": 31.46
            },
            {
              "station_name": "BRESCIA",
              "station_order": 8,
              "lat": 45.532315,
              "lon": 10.212828,
              "distance_from_previous_km": 4.33
            },
            {
              "station_name": "MILANO CENTRALE",
              "station_order": 9,
              "lat": 45.486347,
              "lon": 9.204528,
              "distance_from_previous_km": 12.46
            }
          ],
          "current_stop_index": 0
        },
        {
          "train_id": "REG_2816",
          "train_type": "regional",
          "current_station": null,
          "next_station": "MILANO CENTRALE",
          "current_edge": "VOGHERA--PAVIA",
          "position_km": 11.66666666666667,
          "speed_kmh": 80,
          "delay_sec": 761,
          "status": "en_route",
          "lat": 45.486347,
          "lon": 9.204528,
          "route": [
            {
              "station_name": "MILANO CENTRALE",
              "station_order": 1,
              "lat": 45.486347,
              "lon": 9.204528,
              "distance_from_previous_km": 6.05
            },
            {
              "station_name": "MILANO CENTRALE",
              "station_order": 1,
              "lat": 45.486347,
              "lon": 9.204528,
              "distance_from_previous_km": 3.06
            },
            {
              "station_name": "MILANO CENTRALE",
              "station_order": 1,
              "lat": 45.486347,
              "lon": 9.204528,
              "distance_from_previous_km": 0.0
            },
            {
              "station_name": "MILANO CENTRALE",
              "station_order": 1,
              "lat": 45.486347,
              "lon": 9.204528,
              "distance_from_previous_km": 0.0
            },
            {
              "station_name": "MONZA",
              "station_order": 2,
              "lat": 45.577789,
              "lon": 9.273253,
              "distance_from_previous_km": 3.33
            },
            {
              "station_name": "MONZA",
              "station_order": 2,
              "lat": 45.577789,
              "lon": 9.273253,
              "distance_from_previous_km": 2.45
            },
            {
              "station_name": "MONZA",
              "station_order": 2,
              "lat": 45.577789,
              "lon": 9.273253,
              "distance_from_previous_km": 11.934
            },
            {
              "station_name": "MONZA",
              "station_order": 2,
              "lat": 45.577789,
              "lon": 9.273253,
              "distance_from_previous_km": 11.934
            },
            {
              "station_name": "LECCO",
              "station_order": 3,
              "lat": 45.856471,
              "lon": 9.393638,
              "distance_from_previous_km": 3.03
            },
            {
              "station_name": "LECCO",
              "station_order": 3,
              "lat": 45.856471,
              "lon": 9.393638,
              "distance_from_previous_km": 3.28
            },
            {
              "station_name": "LECCO",
              "station_order": 3,
              "lat": 45.856471,
              "lon": 9.393638,
              "distance_from_previous_km": 36.794
            },
            {
              "station_name": "LECCO",
              "station_order": 3,
              "lat": 45.856471,
              "lon": 9.393638,
              "distance_from_previous_km": 36.794
            },
            {
              "station_name": "MANDELLO DEL LARIO",
              "station_order": 4,
              "lat": 45.915208,
              "lon": 9.322061,
              "distance_from_previous_km": 2.82
            },
            {
              "station_name": "MANDELLO DEL LARIO",
              "station_order": 4,
              "lat": 45.915208,
              "lon": 9.322061,
              "distance_from_previous_km": 9.441
            },
            {
              "station_name": "MANDELLO DEL LARIO",
              "station_order": 4,
              "lat": 45.915208,
              "lon": 9.322061,
              "distance_from_previous_km": 9.441
            },
            {
              "station_name": "VARENNA ESINO",
              "station_order": 5,
              "lat": 46.015,
              "lon": 9.286405,
              "distance_from_previous_km": 4.74
            },
            {
              "station_name": "VARENNA ESINO",
              "station_order": 5,
              "lat": 46.015,
              "lon": 9.286405,
              "distance_from_previous_km": 12.148
            },
            {
              "station_name": "VARENNA ESINO",
              "station_order": 5,
              "lat": 46.015,
              "lon": 9.286405,
              "distance_from_previous_km": 12.148
            },
            {
              "station_name": "BELLANO TARTAVELLE TERME",
              "station_order": 6,
              "lat": 46.039448,
              "lon": 9.302776,
              "distance_from_previous_km": 1.37
            },
            {
              "station_name": "BELLANO TARTAVELLE TERME",
              "station_order": 6,
              "lat": 46.039448,
              "lon": 9.302776,
              "distance_from_previous_km": 3.258
            },
            {
              "station_name": "BELLANO TARTAVELLE TERME",
              "station_order": 6,
              "lat": 46.039448,
              "lon": 9.302776,
              "distance_from_previous_km": 3.258
            },
            {
              "station_name": "COLICO",
              "station_order": 7,
              "lat": 46.138019,
              "lon": 9.375222,
              "distance_from_previous_km": 1.91
            },
            {
              "station_name": "COLICO",
              "station_order": 7,
              "lat": 46.138019,
              "lon": 9.375222,
              "distance_from_previous_km": 14.132
            },
            {
              "station_name": "COLICO",
              "station_order": 7,
              "lat": 46.138019,
              "lon": 9.375222,
              "distance_from_previous_km": 14.132
            },
            {
              "station_name": "MORBEGNO",
              "station_order": 8,
              "lat": 46.136663,
              "lon": 9.568646,
              "distance_from_previous_km": 15.395
            },
            {
              "station_name": "MORBEGNO",
              "station_order": 8,
              "lat": 46.136663,
              "lon": 9.568646,
              "distance_from_previous_km": 15.395
            },
            {
              "station_name": "SONDRIO",
              "station_order": 9,
              "lat": 46.167064,
              "lon": 9.872928,
              "distance_from_previous_km": 25.07
            },
            {
              "station_name": "SONDRIO",
              "station_order": 9,
              "lat": 46.167064,
              "lon": 9.872928,
              "distance_from_previous_km": 25.07
            },
            {
              "station_name": "TRESENDA-APRICA-TEGLIO",
              "station_order": 10,
              "lat": 46.162082,
              "lon": 10.083754,
              "distance_from_previous_km": 16.889
            },
            {
              "station_name": "TIRANO",
              "station_order": 11,
              "lat": 46.21539,
              "lon": 10.166961,
              "distance_from_previous_km": 9.068
            }
          ],
          "current_stop_index": 1
        },
        {
          "train_id": "REG_33132",
          "train_type": "regional",
          "current_station": null,
          "next_station": "COLICO",
          "current_edge": "VOGHERA--PAVIA",
          "position_km": 12.16666666666667,
          "speed_kmh": 80,
          "delay_sec": 181,
          "status": "en_route",
          "lat": 46.138019,
          "lon": 9.375222,
          "route": [
            {
              "station_name": "COLICO",
              "station_order": 1,
              "lat": 46.138019,
              "lon": 9.375222,
              "distance_from_previous_km": 2.09
            },
            {
              "station_name": "COLICO",
              "station_order": 1,
              "lat": 46.138019,
              "lon": 9.375222,
              "distance_from_previous_km": 0.0
            },
            {
              "station_name": "MORBEGNO",
              "station_order": 2,
              "lat": 46.136663,
              "lon": 9.568646,
              "distance_from_previous_km": 2.6
            },
            {
              "station_name": "MORBEGNO",
              "station_order": 2,
              "lat": 46.136663,
              "lon": 9.568646,
              "distance_from_previous_km": 15.395
            },
            {
              "station_name": "SONDRIO",
              "station_order": 3,
              "lat": 46.167064,
              "lon": 9.872928,
              "distance_from_previous_km": 1.93
            },
            {
              "station_name": "ARDENNO MASINO",
              "station_order": 3,
              "lat": 46.16198,
              "lon": 9.651374,
              "distance_from_previous_km": 7.547
            },
            {
              "station_name": "TIRANO",
              "station_order": 4,
              "lat": 46.21539,
              "lon": 10.166961,
              "distance_from_previous_km": 0.9
            },
            {
              "station_name": "SONDRIO",
              "station_order": 4,
              "lat": 46.167064,
              "lon": 9.872928,
              "distance_from_previous_km": 17.523
            },
            {
              "station_name": "TIRANO",
              "station_order": 5,
              "lat": 46.21539,
              "lon": 10.166961,
              "distance_from_previous_km": 25.957
            }
          ],
          "current_stop_index": 0
        }
      ],
      "network_context": {},
      "status": "unresolved"
    },
    {
      "metadata": {
        "conflict_id": "9e1f5708-8d7b-4481-9352-d9ec5df25107",
        "timestamp": "2026-01-25T21:59:01.395386",
        "tick_number": 40,
        "simulation_time": "2026-01-25T06:40:00.459685"
      },
      "conflict": {
        "type": "edge_capacity_overflow",
        "severity": "medium",
        "probability": 1.0,
        "location": "VOGHERA--PAVIA",
        "location_type": "edge",
        "explanation": "ðŸš¨ EDGE OVERLOAD at VOGHERA--PAVIA | Trains involved: IC_1539, FR_9700, REG_2816 (+1 more) | Edge VOGHERA--PAVIA has 4 trains but capacity is 3. Overflow ratio: 1.3x",
        "resolution_suggestions": [
          "Hold trains at previous station",
          "Reroute via alternative track",
          "Reduce speed to create spacing"
        ]
      },
      "affected_trains": [
        {
          "train_id": "IC_1539",
          "train_type": "intercity",
          "current_station": null,
          "next_station": "PAVIA",
          "current_edge": "VOGHERA--PAVIA",
          "position_km": 0,
          "speed_kmh": 120,
          "delay_sec": 453,
          "status": "en_route",
          "lat": 45.858579,
          "lon": 8.86241,
          "route": [
            {
              "station_name": "VOGHERA",
              "station_order": 3,
              "lat": 44.9978,
              "lon": 9.007942,
              "distance_from_previous_km": 64.82
            },
            {
              "station_name": "PAVIA",
              "station_order": 4,
              "lat": 45.188843,
              "lon": 9.144674,
              "distance_from_previous_km": 23.8
            },
            {
              "station_name": "MILANO CENTRALE",
              "station_order": 5,
              "lat": 45.486347,
              "lon": 9.204528,
              "distance_from_previous_km": 33.4
            }
          ],
          "current_stop_index": 0
        },
        {
          "train_id": "FR_9700",
          "train_type": "high_speed",
          "current_station": null,
          "next_station": "DESENZANO",
          "current_edge": "VOGHERA--PAVIA",
          "position_km": 17.0,
          "speed_kmh": 120,
          "delay_sec": 0,
          "status": "en_route",
          "lat": 45.473556472345834,
          "lon": 9.924187821996185,
          "route": [
            {
              "station_name": "MILANO CENTRALE",
              "station_order": 4,
              "lat": 45.486347,
              "lon": 9.204528,
              "distance_from_previous_km": 209.48
            },
            {
              "station_name": "DESENZANO",
              "station_order": 7,
              "lat": 45.462677,
              "lon": 10.536322,
              "distance_from_previous_km": 31.46
            },
            {
              "station_name": "BRESCIA",
              "station_order": 8,
              "lat": 45.532315,
              "lon": 10.212828,
              "distance_from_previous_km": 4.33
            },
            {
              "station_name": "MILANO CENTRALE",
              "station_order": 9,
              "lat": 45.486347,
              "lon": 9.204528,
              "distance_from_previous_km": 12.46
            }
          ],
          "current_stop_index": 0
        },
        {
          "train_id": "REG_2816",
          "train_type": "regional",
          "current_station": null,
          "next_station": "MILANO CENTRALE",
          "current_edge": "VOGHERA--PAVIA",
          "position_km": 16.833333333333332,
          "speed_kmh": 80,
          "delay_sec": 761,
          "status": "en_route",
          "lat": 45.486347,
          "lon": 9.204528,
          "route": [
            {
              "station_name": "MILANO CENTRALE",
              "station_order": 1,
              "lat": 45.486347,
              "lon": 9.204528,
              "distance_from_previous_km": 6.05
            },
            {
              "station_name": "MILANO CENTRALE",
              "station_order": 1,
              "lat": 45.486347,
              "lon": 9.204528,
              "distance_from_previous_km": 3.06
            },
            {
              "station_name": "MILANO CENTRALE",
              "station_order": 1,
              "lat": 45.486347,
              "lon": 9.204528,
              "distance_from_previous_km": 0.0
            },
            {
              "station_name": "MILANO CENTRALE",
              "station_order": 1,
              "lat": 45.486347,
              "lon": 9.204528,
              "distance_from_previous_km": 0.0
            },
            {
              "station_name": "MONZA",
              "station_order": 2,
              "lat": 45.577789,
              "lon": 9.273253,
              "distance_from_previous_km": 3.33
            },
            {
              "station_name": "MONZA",
              "station_order": 2,
              "lat": 45.577789,
              "lon": 9.273253,
              "distance_from_previous_km": 2.45
            },
            {
              "station_name": "MONZA",
              "station_order": 2,
              "lat": 45.577789,
              "lon": 9.273253,
              "distance_from_previous_km": 11.934
            },
            {
              "station_name": "MONZA",
              "station_order": 2,
              "lat": 45.577789,
              "lon": 9.273253,
              "distance_from_previous_km": 11.934
            },
            {
              "station_name": "LECCO",
              "station_order": 3,
              "lat": 45.856471,
              "lon": 9.393638,
              "distance_from_previous_km": 3.03
            },
            {
              "station_name": "LECCO",
              "station_order": 3,
              "lat": 45.856471,
              "lon": 9.393638,
              "distance_from_previous_km": 3.28
            },
            {
              "station_name": "LECCO",
              "station_order": 3,
              "lat": 45.856471,
              "lon": 9.393638,
              "distance_from_previous_km": 36.794
            },
            {
              "station_name": "LECCO",
              "station_order": 3,
              "lat": 45.856471,
              "lon": 9.393638,
              "distance_from_previous_km": 36.794
            },
            {
              "station_name": "MANDELLO DEL LARIO",
              "station_order": 4,
              "lat": 45.915208,
              "lon": 9.322061,
              "distance_from_previous_km": 2.82
            },
            {
              "station_name": "MANDELLO DEL LARIO",
              "station_order": 4,
              "lat": 45.915208,
              "lon": 9.322061,
              "distance_from_previous_km": 9.441
            },
            {
              "station_name": "MANDELLO DEL LARIO",
              "station_order": 4,
              "lat": 45.915208,
              "lon": 9.322061,
              "distance_from_previous_km": 9.441
            },
            {
              "station_name": "VARENNA ESINO",
              "station_order": 5,
              "lat": 46.015,
              "lon": 9.286405,
              "distance_from_previous_km": 4.74
            },
            {
              "station_name": "VARENNA ESINO",
              "station_order": 5,
              "lat": 46.015,
              "lon": 9.286405,
              "distance_from_previous_km": 12.148
            },
            {
              "station_name": "VARENNA ESINO",
              "station_order": 5,
              "lat": 46.015,
              "lon": 9.286405,
              "distance_from_previous_km": 12.148
            },
            {
              "station_name": "BELLANO TARTAVELLE TERME",
              "station_order": 6,
              "lat": 46.039448,
              "lon": 9.302776,
              "distance_from_previous_km": 1.37
            },
            {
              "station_name": "BELLANO TARTAVELLE TERME",
              "station_order": 6,
              "lat": 46.039448,
              "lon": 9.302776,
              "distance_from_previous_km": 3.258
            },
            {
              "station_name": "BELLANO TARTAVELLE TERME",
              "station_order": 6,
              "lat": 46.039448,
              "lon": 9.302776,
              "distance_from_previous_km": 3.258
            },
            {
              "station_name": "COLICO",
              "station_order": 7,
              "lat": 46.138019,
              "lon": 9.375222,
              "distance_from_previous_km": 1.91
            },
            {
              "station_name": "COLICO",
              "station_order": 7,
              "lat": 46.138019,
              "lon": 9.375222,
              "distance_from_previous_km": 14.132
            },
            {
              "station_name": "COLICO",
              "station_order": 7,
              "lat": 46.138019,
              "lon": 9.375222,
              "distance_from_previous_km": 14.132
            },
            {
              "station_name": "MORBEGNO",
              "station_order": 8,
              "lat": 46.136663,
              "lon": 9.568646,
              "distance_from_previous_km": 15.395
            },
            {
              "station_name": "MORBEGNO",
              "station_order": 8,
              "lat": 46.136663,
              "lon": 9.568646,
              "distance_from_previous_km": 15.395
            },
            {
              "station_name": "SONDRIO",
              "station_order": 9,
              "lat": 46.167064,
              "lon": 9.872928,
              "distance_from_previous_km": 25.07
            },
            {
              "station_name": "SONDRIO",
              "station_order": 9,
              "lat": 46.167064,
              "lon": 9.872928,
              "distance_from_previous_km": 25.07
            },
            {
              "station_name": "TRESENDA-APRICA-TEGLIO",
              "station_order": 10,
              "lat": 46.162082,
              "lon": 10.083754,
              "distance_from_previous_km": 16.889
            },
            {
              "station_name": "TIRANO",
              "station_order": 11,
              "lat": 46.21539,
              "lon": 10.166961,
              "distance_from_previous_km": 9.068
            }
          ],
          "current_stop_index": 1
        },
        {
          "train_id": "REG_33132",
          "train_type": "regional",
          "current_station": null,
          "next_station": "COLICO",
          "current_edge": "VOGHERA--PAVIA",
          "position_km": 13.500000000000004,
          "speed_kmh": 80,
          "delay_sec": 181,
          "status": "en_route",
          "lat": 46.138019,
          "lon": 9.375222,
          "route": [
            {
              "station_name": "COLICO",
              "station_order": 1,
              "lat": 46.138019,
              "lon": 9.375222,
              "distance_from_previous_km": 2.09
            },
            {
              "station_name": "COLICO",
              "station_order": 1,
              "lat": 46.138019,
              "lon": 9.375222,
              "distance_from_previous_km": 0.0
            },
            {
              "station_name": "MORBEGNO",
              "station_order": 2,
              "lat": 46.136663,
              "lon": 9.568646,
              "distance_from_previous_km": 2.6
            },
            {
              "station_name": "MORBEGNO",
              "station_order": 2,
              "lat": 46.136663,
              "lon": 9.568646,
              "distance_from_previous_km": 15.395
            },
            {
              "station_name": "SONDRIO",
              "station_order": 3,
              "lat": 46.167064,
              "lon": 9.872928,
              "distance_from_previous_km": 1.93
            },
            {
              "station_name": "ARDENNO MASINO",
              "station_order": 3,
              "lat": 46.16198,
              "lon": 9.651374,
              "distance_from_previous_km": 7.547
            },
            {
              "station_name": "TIRANO",
              "station_order": 4,
              "lat": 46.21539,
              "lon": 10.166961,
              "distance_from_previous_km": 0.9
            },
            {
              "station_name": "SONDRIO",
              "station_order": 4,
              "lat": 46.167064,
              "lon": 9.872928,
              "distance_from_previous_km": 17.523
            },