{
  "file_info": {
    "description": "All detected conflicts from simulation",
    "last_updated": "2026-01-29T17:50:18.973378",
    "total_conflicts": 18,
    "unresolved_count": 18,
    "resolved_count": 0
  },
  "conflicts": [
    {
      "metadata": {
        "conflict_id": "TF-20260129174051",
        "timestamp": "2026-01-29T06:50:00.770248",
        "tick_number": 50,
        "simulation_time": "2026-01-29T06:50:00.770248"
      },
      "conflict": {
        "type": "track_fault",
        "severity": "critical",
        "probability": 0.86,
        "location": "MILANO LAMBRATE--TREVIGLIO",
        "location_type": "edge",
        "explanation": "üõ§Ô∏è DEFECTIVE TRACK detected by Vision AI | Edge: MILANO LAMBRATE--TREVIGLIO | Confidence: 86% | Track CLOSED for 45min repair",
        "resolution_suggestions": [
          "‚ö†Ô∏è Immediate track closure required",
          "Dispatch maintenance team to MILANO LAMBRATE--TREVIGLIO",
          "Estimated repair time: 45 minutes",
          "Reroute all trains via alternate path"
        ]
      },
      "affected_trains": [],
      "network_context": {},
      "status": "unresolved"
    },
    {
      "metadata": {
        "conflict_id": "ad8623ef-b8fb-4f55-932c-23665a9448e1",
        "timestamp": "2026-01-29T17:49:11.594158",
        "tick_number": 21,
        "simulation_time": "2026-01-29T06:21:00.170601"
      },
      "conflict": {
        "type": "edge_capacity_overflow",
        "severity": "medium",
        "probability": 1.0,
        "location": "MILANO CENTRALE--RHO FIERA MILANO",
        "location_type": "edge",
        "explanation": "üö® EDGE OVERLOAD at MILANO CENTRALE--RHO FIERA MILANO | Trains involved: REG_2014, FR_9700, REG_2816 (+1 more) | Edge MILANO CENTRALE--RHO FIERA MILANO has 4 trains but capacity is 3. Overflow ratio: 1.3x",
        "resolution_suggestions": [
          "Hold trains at previous station",
          "Reroute via alternative track",
          "Reduce speed to create spacing"
        ]
      },
      "affected_trains": [
        {
          "train_id": "REG_2014",
          "train_type": "regional",
          "current_station": null,
          "next_station": "RHO FIERA MILANO",
          "current_edge": "MILANO CENTRALE--RHO FIERA MILANO",
          "position_km": 2.666666666666667,
          "speed_kmh": 80,
          "delay_sec": 41,
          "status": "en_route",
          "lat": 45.49577102707276,
          "lon": 9.173141739424704,
          "route": [
            {
              "station_name": "MILANO CENTRALE",
              "station_order": 1,
              "lat": 45.486347,
              "lon": 9.204528,
              "distance_from_previous_km": 0.0
            },
            {
              "station_name": "RHO FIERA MILANO",
              "station_order": 2,
              "lat": 45.521157,
              "lon": 9.088595,
              "distance_from_previous_km": 9.85
            },
            {
              "station_name": "MAGENTA",
              "station_order": 3,
              "lat": 45.468204,
              "lon": 8.880633,
              "distance_from_previous_km": 17.29
            }
          ],
          "current_stop_index": 0
        },
        {
          "train_id": "FR_9700",
          "train_type": "high_speed",
          "current_station": null,
          "next_station": "DESENZANO",
          "current_edge": "MILANO CENTRALE--RHO FIERA MILANO",
          "position_km": 1.4666666666666668,
          "speed_kmh": 20,
          "delay_sec": 0,
          "status": "en_route",
          "lat": 45.485243503496505,
          "lon": 9.266616298368298,
          "route": [
            {
              "station_name": "MILANO CENTRALE",
              "station_order": 4,
              "lat": 45.486347,
              "lon": 9.204528,
              "distance_from_previous_km": 209.48
            },
            {
              "station_name": "DESENZANO",
              "station_order": 7,
              "lat": 45.462677,
              "lon": 10.536322,
              "distance_from_previous_km": 31.46
            },
            {
              "station_name": "BRESCIA",
              "station_order": 8,
              "lat": 45.532315,
              "lon": 10.212828,
              "distance_from_previous_km": 4.33
            },
            {
              "station_name": "MILANO CENTRALE",
              "station_order": 9,
              "lat": 45.486347,
              "lon": 9.204528,
              "distance_from_previous_km": 12.46
            }
          ],
          "current_stop_index": 0
        },
        {
          "train_id": "REG_2816",
          "train_type": "regional",
          "current_station": null,
          "next_station": "MILANO CENTRALE",
          "current_edge": "MILANO CENTRALE--RHO FIERA MILANO",
          "position_km": 2.266666666666667,
          "speed_kmh": 20,
          "delay_sec": 0,
          "status": "en_route",
          "lat": 45.486347,
          "lon": 9.204528,
          "route": [
            {
              "station_name": "MILANO CENTRALE",
              "station_order": 1,
              "lat": 45.486347,
              "lon": 9.204528,
              "distance_from_previous_km": 6.05
            },
            {
              "station_name": "MILANO CENTRALE",
              "station_order": 1,
              "lat": 45.486347,
              "lon": 9.204528,
              "distance_from_previous_km": 3.06
            },
            {
              "station_name": "MILANO CENTRALE",
              "station_order": 1,
              "lat": 45.486347,
              "lon": 9.204528,
              "distance_from_previous_km": 0.0
            },
            {
              "station_name": "MILANO CENTRALE",
              "station_order": 1,
              "lat": 45.486347,
              "lon": 9.204528,
              "distance_from_previous_km": 0.0
            },
            {
              "station_name": "MONZA",
              "station_order": 2,
              "lat": 45.577789,
              "lon": 9.273253,
              "distance_from_previous_km": 3.33
            },
            {
              "station_name": "MONZA",
              "station_order": 2,
              "lat": 45.577789,
              "lon": 9.273253,
              "distance_from_previous_km": 2.45
            },
            {
              "station_name": "MONZA",
              "station_order": 2,
              "lat": 45.577789,
              "lon": 9.273253,
              "distance_from_previous_km": 11.934
            },
            {
              "station_name": "MONZA",
              "station_order": 2,
              "lat": 45.577789,
              "lon": 9.273253,
              "distance_from_previous_km": 11.934
            },
            {
              "station_name": "LECCO",
              "station_order": 3,
              "lat": 45.856471,
              "lon": 9.393638,
              "distance_from_previous_km": 3.03
            },
            {
              "station_name": "LECCO",
              "station_order": 3,
              "lat": 45.856471,
              "lon": 9.393638,
              "distance_from_previous_km": 3.28
            },
            {
              "station_name": "LECCO",
              "station_order": 3,
              "lat": 45.856471,
              "lon": 9.393638,
              "distance_from_previous_km": 36.794
            },
            {
              "station_name": "LECCO",
              "station_order": 3,
              "lat": 45.856471,
              "lon": 9.393638,
              "distance_from_previous_km": 36.794
            },
            {
              "station_name": "MANDELLO DEL LARIO",
              "station_order": 4,
              "lat": 45.915208,
              "lon": 9.322061,
              "distance_from_previous_km": 2.82
            },
            {
              "station_name": "MANDELLO DEL LARIO",
              "station_order": 4,
              "lat": 45.915208,
              "lon": 9.322061,
              "distance_from_previous_km": 9.441
            },
            {
              "station_name": "MANDELLO DEL LARIO",
              "station_order": 4,
              "lat": 45.915208,
              "lon": 9.322061,
              "distance_from_previous_km": 9.441
            },
            {
              "station_name": "VARENNA ESINO",
              "station_order": 5,
              "lat": 46.015,
              "lon": 9.286405,
              "distance_from_previous_km": 4.74
            },
            {
              "station_name": "VARENNA ESINO",
              "station_order": 5,
              "lat": 46.015,
              "lon": 9.286405,
              "distance_from_previous_km": 12.148
            },
            {
              "station_name": "VARENNA ESINO",
              "station_order": 5,
              "lat": 46.015,
              "lon": 9.286405,
              "distance_from_previous_km": 12.148
            },
            {
              "station_name": "BELLANO TARTAVELLE TERME",
              "station_order": 6,
              "lat": 46.039448,
              "lon": 9.302776,
              "distance_from_previous_km": 1.37
            },
            {
              "station_name": "BELLANO TARTAVELLE TERME",
              "station_order": 6,
              "lat": 46.039448,
              "lon": 9.302776,
              "distance_from_previous_km": 3.258
            },
            {
              "station_name": "BELLANO TARTAVELLE TERME",
              "station_order": 6,
              "lat": 46.039448,
              "lon": 9.302776,
              "distance_from_previous_km": 3.258
            },
            {
              "station_name": "COLICO",
              "station_order": 7,
              "lat": 46.138019,
              "lon": 9.375222,
              "distance_from_previous_km": 1.91
            },
            {
              "station_name": "COLICO",
              "station_order": 7,
              "lat": 46.138019,
              "lon": 9.375222,
              "distance_from_previous_km": 14.132
            },
            {
              "station_name": "COLICO",
              "station_order": 7,
              "lat": 46.138019,
              "lon": 9.375222,
              "distance_from_previous_km": 14.132
            },
            {
              "station_name": "MORBEGNO",
              "station_order": 8,
              "lat": 46.136663,
              "lon": 9.568646,
              "distance_from_previous_km": 15.395
            },
            {
              "station_name": "MORBEGNO",
              "station_order": 8,
              "lat": 46.136663,
              "lon": 9.568646,
              "distance_from_previous_km": 15.395
            },
            {
              "station_name": "SONDRIO",
              "station_order": 9,
              "lat": 46.167064,
              "lon": 9.872928,
              "distance_from_previous_km": 25.07
            },
            {
              "station_name": "SONDRIO",
              "station_order": 9,
              "lat": 46.167064,
              "lon": 9.872928,
              "distance_from_previous_km": 25.07
            },
            {
              "station_name": "TRESENDA-APRICA-TEGLIO",
              "station_order": 10,
              "lat": 46.162082,
              "lon": 10.083754,
              "distance_from_previous_km": 16.889
            },
            {
              "station_name": "TIRANO",
              "station_order": 11,
              "lat": 46.21539,
              "lon": 10.166961,
              "distance_from_previous_km": 9.068
            }
          ],
          "current_stop_index": 1
        },
        {
          "train_id": "REG_33132",
          "train_type": "regional",
          "current_station": null,
          "next_station": "COLICO",
          "current_edge": "MILANO CENTRALE--RHO FIERA MILANO",
          "position_km": 3.0666666666666673,
          "speed_kmh": 20,
          "delay_sec": 60,
          "status": "en_route",
          "lat": 46.138019,
          "lon": 9.375222,
          "route": [
            {
              "station_name": "COLICO",
              "station_order": 1,
              "lat": 46.138019,
              "lon": 9.375222,
              "distance_from_previous_km": 2.09
            },
            {
              "station_name": "COLICO",
              "station_order": 1,
              "lat": 46.138019,
              "lon": 9.375222,
              "distance_from_previous_km": 0.0
            },
            {
              "station_name": "MORBEGNO",
              "station_order": 2,
              "lat": 46.136663,
              "lon": 9.568646,
              "distance_from_previous_km": 2.6
            },
            {
              "station_name": "MORBEGNO",
              "station_order": 2,
              "lat": 46.136663,
              "lon": 9.568646,
              "distance_from_previous_km": 15.395
            },
            {
              "station_name": "SONDRIO",
              "station_order": 3,
              "lat": 46.167064,
              "lon": 9.872928,
              "distance_from_previous_km": 1.93
            },
            {
              "station_name": "ARDENNO MASINO",
              "station_order": 3,
              "lat": 46.16198,
              "lon": 9.651374,
              "distance_from_previous_km": 7.547
            },
            {
              "station_name": "TIRANO",
              "station_order": 4,
              "lat": 46.21539,
              "lon": 10.166961,
              "distance_from_previous_km": 0.9
            },
            {
              "station_name": "SONDRIO",
              "station_order": 4,
              "lat": 46.167064,
              "lon": 9.872928,
              "distance_from_previous_km": 17.523
            },
            {
              "station_name": "TIRANO",
              "station_order": 5,
              "lat": 46.21539,
              "lon": 10.166961,
              "distance_from_previous_km": 25.957
            }
          ],
          "current_stop_index": 0
        }
      ],
      "network_context": {},
      "status": "unresolved"
    },
    {
      "metadata": {
        "conflict_id": "7d25bd8e-9c6d-4c71-9478-cd7b3cca3aa6",
        "timestamp": "2026-01-29T17:49:11.718250",
        "tick_number": 22,
        "simulation_time": "2026-01-29T06:22:00.170601"
      },
      "conflict": {
        "type": "edge_capacity_overflow",
        "severity": "medium",
        "probability": 1.0,
        "location": "MILANO CENTRALE--RHO FIERA MILANO",
        "location_type": "edge",
        "explanation": "üö® EDGE OVERLOAD at MILANO CENTRALE--RHO FIERA MILANO | Trains involved: REG_2014, FR_9700, REG_2816 (+1 more) | Edge MILANO CENTRALE--RHO FIERA MILANO has 4 trains but capacity is 3. Overflow ratio: 1.3x",
        "resolution_suggestions": [
          "Hold trains at previous station",
          "Reroute via alternative track",
          "Reduce speed to create spacing"
        ]
      },
      "affected_trains": [
        {
          "train_id": "REG_2014",
          "train_type": "regional",
          "current_station": null,
          "next_station": "RHO FIERA MILANO",
          "current_edge": "MILANO CENTRALE--RHO FIERA MILANO",
          "position_km": 4.0,
          "speed_kmh": 80,
          "delay_sec": 41,
          "status": "en_route",
          "lat": 45.50048304060914,
          "lon": 9.157448609137056,
          "route": [
            {
              "station_name": "MILANO CENTRALE",
              "station_order": 1,
              "lat": 45.486347,
              "lon": 9.204528,
              "distance_from_previous_km": 0.0
            },
            {
              "station_name": "RHO FIERA MILANO",
              "station_order": 2,
              "lat": 45.521157,
              "lon": 9.088595,
              "distance_from_previous_km": 9.85
            },
            {
              "station_name": "MAGENTA",
              "station_order": 3,
              "lat": 45.468204,
              "lon": 8.880633,
              "distance_from_previous_km": 17.29
            }
          ],
          "current_stop_index": 0
        },
        {
          "train_id": "FR_9700",
          "train_type": "high_speed",
          "current_station": null,
          "next_station": "DESENZANO",
          "current_edge": "MILANO CENTRALE--RHO FIERA MILANO",
          "position_km": 1.8000000000000003,
          "speed_kmh": 20,
          "delay_sec": 94,
          "status": "en_route",
          "lat": 45.48499270883662,
          "lon": 9.280727275270184,
          "route": [
            {
              "station_name": "MILANO CENTRALE",
              "station_order": 4,
              "lat": 45.486347,
              "lon": 9.204528,
              "distance_from_previous_km": 209.48
            },
            {
              "station_name": "DESENZANO",
              "station_order": 7,
              "lat": 45.462677,
              "lon": 10.536322,
              "distance_from_previous_km": 31.46
            },
            {
              "station_name": "BRESCIA",
              "station_order": 8,
              "lat": 45.532315,
              "lon": 10.212828,
              "distance_from_previous_km": 4.33
            },
            {
              "station_name": "MILANO CENTRALE",
              "station_order": 9,
              "lat": 45.486347,
              "lon": 9.204528,
              "distance_from_previous_km": 12.46
            }
          ],
          "current_stop_index": 0
        },
        {
          "train_id": "REG_2816",
          "train_type": "regional",
          "current_station": null,
          "next_station": "MILANO CENTRALE",
          "current_edge": "MILANO CENTRALE--RHO FIERA MILANO",
          "position_km": 2.6000000000000005,
          "speed_kmh": 20,
          "delay_sec": 0,
          "status": "en_route",
          "lat": 45.486347,
          "lon": 9.204528,
          "route": [
            {
              "station_name": "MILANO CENTRALE",
              "station_order": 1,
              "lat": 45.486347,
              "lon": 9.204528,
              "distance_from_previous_km": 6.05
            },
            {
              "station_name": "MILANO CENTRALE",
              "station_order": 1,
              "lat": 45.486347,
              "lon": 9.204528,
              "distance_from_previous_km": 3.06
            },
            {
              "station_name": "MILANO CENTRALE",
              "station_order": 1,
              "lat": 45.486347,
              "lon": 9.204528,
              "distance_from_previous_km": 0.0
            },
            {
              "station_name": "MILANO CENTRALE",
              "station_order": 1,
              "lat": 45.486347,
              "lon": 9.204528,
              "distance_from_previous_km": 0.0
            },
            {
              "station_name": "MONZA",
              "station_order": 2,
              "lat": 45.577789,
              "lon": 9.273253,
              "distance_from_previous_km": 3.33
            },
            {
              "station_name": "MONZA",
              "station_order": 2,
              "lat": 45.577789,
              "lon": 9.273253,
              "distance_from_previous_km": 2.45
            },
            {
              "station_name": "MONZA",
              "station_order": 2,
              "lat": 45.577789,
              "lon": 9.273253,
              "distance_from_previous_km": 11.934
            },
            {
              "station_name": "MONZA",
              "station_order": 2,
              "lat": 45.577789,
              "lon": 9.273253,
              "distance_from_previous_km": 11.934
            },
            {
              "station_name": "LECCO",
              "station_order": 3,
              "lat": 45.856471,
              "lon": 9.393638,
              "distance_from_previous_km": 3.03
            },
            {
              "station_name": "LECCO",
              "station_order": 3,
              "lat": 45.856471,
              "lon": 9.393638,
              "distance_from_previous_km": 3.28
            },
            {
              "station_name": "LECCO",
              "station_order": 3,
              "lat": 45.856471,
              "lon": 9.393638,
              "distance_from_previous_km": 36.794
            },
            {
              "station_name": "LECCO",
              "station_order": 3,
              "lat": 45.856471,
              "lon": 9.393638,
              "distance_from_previous_km": 36.794
            },
            {
              "station_name": "MANDELLO DEL LARIO",
              "station_order": 4,
              "lat": 45.915208,
              "lon": 9.322061,
              "distance_from_previous_km": 2.82
            },
            {
              "station_name": "MANDELLO DEL LARIO",
              "station_order": 4,
              "lat": 45.915208,
              "lon": 9.322061,
              "distance_from_previous_km": 9.441
            },
            {
              "station_name": "MANDELLO DEL LARIO",
              "station_order": 4,
              "lat": 45.915208,
              "lon": 9.322061,
              "distance_from_previous_km": 9.441
            },
            {
              "station_name": "VARENNA ESINO",
              "station_order": 5,
              "lat": 46.015,
              "lon": 9.286405,
              "distance_from_previous_km": 4.74
            },
            {
              "station_name": "VARENNA ESINO",
              "station_order": 5,
              "lat": 46.015,
              "lon": 9.286405,
              "distance_from_previous_km": 12.148
            },
            {
              "station_name": "VARENNA ESINO",
              "station_order": 5,
              "lat": 46.015,
              "lon": 9.286405,
              "distance_from_previous_km": 12.148
            },
            {
              "station_name": "BELLANO TARTAVELLE TERME",
              "station_order": 6,
              "lat": 46.039448,
              "lon": 9.302776,
              "distance_from_previous_km": 1.37
            },
            {
              "station_name": "BELLANO TARTAVELLE TERME",
              "station_order": 6,
              "lat": 46.039448,
              "lon": 9.302776,
              "distance_from_previous_km": 3.258
            },
            {
              "station_name": "BELLANO TARTAVELLE TERME",
              "station_order": 6,
              "lat": 46.039448,
              "lon": 9.302776,
              "distance_from_previous_km": 3.258
            },
            {
              "station_name": "COLICO",
              "station_order": 7,
              "lat": 46.138019,
              "lon": 9.375222,
              "distance_from_previous_km": 1.91
            },
            {
              "station_name": "COLICO",
              "station_order": 7,
              "lat": 46.138019,
              "lon": 9.375222,
              "distance_from_previous_km": 14.132
            },
            {
              "station_name": "COLICO",
              "station_order": 7,
              "lat": 46.138019,
              "lon": 9.375222,
              "distance_from_previous_km": 14.132
            },
            {
              "station_name": "MORBEGNO",
              "station_order": 8,
              "lat": 46.136663,
              "lon": 9.568646,
              "distance_from_previous_km": 15.395
            },
            {
              "station_name": "MORBEGNO",
              "station_order": 8,
              "lat": 46.136663,
              "lon": 9.568646,
              "distance_from_previous_km": 15.395
            },
            {
              "station_name": "SONDRIO",
              "station_order": 9,
              "lat": 46.167064,
              "lon": 9.872928,
              "distance_from_previous_km": 25.07
            },
            {
              "station_name": "SONDRIO",
              "station_order": 9,
              "lat": 46.167064,
              "lon": 9.872928,
              "distance_from_previous_km": 25.07
            },
            {
              "station_name": "TRESENDA-APRICA-TEGLIO",
              "station_order": 10,
              "lat": 46.162082,
              "lon": 10.083754,
              "distance_from_previous_km": 16.889
            },
            {
              "station_name": "TIRANO",
              "station_order": 11,
              "lat": 46.21539,
              "lon": 10.166961,
              "distance_from_previous_km": 9.068
            }
          ],
          "current_stop_index": 1
        },
        {
          "train_id": "REG_33132",
          "train_type": "regional",
          "current_station": null,
          "next_station": "COLICO",
          "current_edge": "MILANO CENTRALE--RHO FIERA MILANO",
          "position_km": 3.400000000000001,
          "speed_kmh": 20,
          "delay_sec": 60,
          "status": "en_route",
          "lat": 46.138019,
          "lon": 9.375222,
          "route": [
            {
              "station_name": "COLICO",
              "station_order": 1,
              "lat": 46.138019,
              "lon": 9.375222,
              "distance_from_previous_km": 2.09
            },
            {
              "station_name": "COLICO",
              "station_order": 1,
              "lat": 46.138019,
              "lon": 9.375222,
              "distance_from_previous_km": 0.0
            },
            {
              "station_name": "MORBEGNO",
              "station_order": 2,
              "lat": 46.136663,
              "lon": 9.568646,
              "distance_from_previous_km": 2.6
            },
            {
              "station_name": "MORBEGNO",
              "station_order": 2,
              "lat": 46.136663,
              "lon": 9.568646,
              "distance_from_previous_km": 15.395
            },
            {
              "station_name": "SONDRIO",
              "station_order": 3,
              "lat": 46.167064,
              "lon": 9.872928,
              "distance_from_previous_km": 1.93
            },
            {
              "station_name": "ARDENNO MASINO",
              "station_order": 3,
              "lat": 46.16198,
              "lon": 9.651374,
              "distance_from_previous_km": 7.547
            },
            {
              "station_name": "TIRANO",
              "station_order": 4,
              "lat": 46.21539,
              "lon": 10.166961,
              "distance_from_previous_km": 0.9
            },
            {
              "station_name": "SONDRIO",
              "station_order": 4,
              "lat": 46.167064,
              "lon": 9.872928,
              "distance_from_previous_km": 17.523
            },
            {
              "station_name": "TIRANO",
              "station_order": 5,
              "lat": 46.21539,
              "lon": 10.166961,
              "distance_from_previous_km": 25.957
            }
          ],
          "current_stop_index": 0
        }
      ],
      "network_context": {},
      "status": "unresolved"
    },
    {
      "metadata": {
        "conflict_id": "4c4543c8-4a6c-46b1-be21-de353d1af4d7",
        "timestamp": "2026-01-29T17:49:11.820663",
        "tick_number": 23,
        "simulation_time": "2026-01-29T06:23:00.170601"
      },
      "conflict": {
        "type": "edge_capacity_overflow",
        "severity": "medium",
        "probability": 1.0,
        "location": "MILANO CENTRALE--RHO FIERA MILANO",
        "location_type": "edge",
        "explanation": "üö® EDGE OVERLOAD at MILANO CENTRALE--RHO FIERA MILANO | Trains involved: REG_2014, FR_9700, REG_2816 (+1 more) | Edge MILANO CENTRALE--RHO FIERA MILANO has 4 trains but capacity is 3. Overflow ratio: 1.3x",
        "resolution_suggestions": [
          "Hold trains at previous station",
          "Reroute via alternative track",
          "Reduce speed to create spacing"
        ]
      },
      "affected_trains": [
        {
          "train_id": "REG_2014",
          "train_type": "regional",
          "current_station": null,
          "next_station": "RHO FIERA MILANO",
          "current_edge": "MILANO CENTRALE--RHO FIERA MILANO",
          "position_km": 5.333333333333334,
          "speed_kmh": 80,
          "delay_sec": 41,
          "status": "en_route",
          "lat": 45.50519505414552,
          "lon": 9.141755478849408,
          "route": [
            {
              "station_name": "MILANO CENTRALE",
              "station_order": 1,
              "lat": 45.486347,
              "lon": 9.204528,
              "distance_from_previous_km": 0.0
            },
            {
              "station_name": "RHO FIERA MILANO",
              "station_order": 2,
              "lat": 45.521157,
              "lon": 9.088595,
              "distance_from_previous_km": 9.85
            },
            {
              "station_name": "MAGENTA",
              "station_order": 3,
              "lat": 45.468204,
              "lon": 8.880633,
              "distance_from_previous_km": 17.29
            }
          ],
          "current_stop_index": 0
        },
        {
          "train_id": "FR_9700",
          "train_type": "high_speed",
          "current_station": null,
          "next_station": "DESENZANO",
          "current_edge": "MILANO CENTRALE--RHO FIERA MILANO",
          "position_km": 2.1333333333333337,
          "speed_kmh": 20,
          "delay_sec": 94,
          "status": "en_route",
          "lat": 45.48474191417674,
          "lon": 9.29483825217207,
          "route": [
            {
              "station_name": "MILANO CENTRALE",
              "station_order": 4,
              "lat": 45.486347,
              "lon": 9.204528,
              "distance_from_previous_km": 209.48
            },
            {
              "station_name": "DESENZANO",
              "station_order": 7,
              "lat": 45.462677,
              "lon": 10.536322,
              "distance_from_previous_km": 31.46
            },
            {
              "station_name": "BRESCIA",
              "station_order": 8,
              "lat": 45.532315,
              "lon": 10.212828,
              "distance_from_previous_km": 4.33
            },
            {
              "station_name": "MILANO CENTRALE",
              "station_order": 9,
              "lat": 45.486347,
              "lon": 9.204528,
              "distance_from_previous_km": 12.46
            }
          ],
          "current_stop_index": 0
        },
        {
          "train_id": "REG_2816",
          "train_type": "regional",
          "current_station": null,
          "next_station": "MILANO CENTRALE",
          "current_edge": "MILANO CENTRALE--RHO FIERA MILANO",
          "position_km": 2.933333333333334,
          "speed_kmh": 20,
          "delay_sec": 0,
          "status": "en_route",
          "lat": 45.486347,
          "lon": 9.204528,
          "route": [
            {
              "station_name": "MILANO CENTRALE",
              "station_order": 1,
              "lat": 45.486347,
              "lon": 9.204528,
              "distance_from_previous_km": 6.05
            },
            {
              "station_name": "MILANO CENTRALE",
              "station_order": 1,
              "lat": 45.486347,
              "lon": 9.204528,
              "distance_from_previous_km": 3.06
            },
            {
              "station_name": "MILANO CENTRALE",
              "station_order": 1,
              "lat": 45.486347,
              "lon": 9.204528,
              "distance_from_previous_km": 0.0
            },
            {
              "station_name": "MILANO CENTRALE",
              "station_order": 1,
              "lat": 45.486347,
              "lon": 9.204528,
              "distance_from_previous_km": 0.0
            },
            {
              "station_name": "MONZA",
              "station_order": 2,
              "lat": 45.577789,
              "lon": 9.273253,
              "distance_from_previous_km": 3.33
            },
            {
              "station_name": "MONZA",
              "station_order": 2,
              "lat": 45.577789,
              "lon": 9.273253,
              "distance_from_previous_km": 2.45
            },
            {
              "station_name": "MONZA",
              "station_order": 2,
              "lat": 45.577789,
              "lon": 9.273253,
              "distance_from_previous_km": 11.934
            },
            {
              "station_name": "MONZA",
              "station_order": 2,
              "lat": 45.577789,
              "lon": 9.273253,
              "distance_from_previous_km": 11.934
            },
            {
              "station_name": "LECCO",
              "station_order": 3,
              "lat": 45.856471,
              "lon": 9.393638,
              "distance_from_previous_km": 3.03
            },
            {
              "station_name": "LECCO",
              "station_order": 3,
              "lat": 45.856471,
              "lon": 9.393638,
              "distance_from_previous_km": 3.28
            },
            {
              "station_name": "LECCO",
              "station_order": 3,
              "lat": 45.856471,
              "lon": 9.393638,
              "distance_from_previous_km": 36.794
            },
            {
              "station_name": "LECCO",
              "station_order": 3,
              "lat": 45.856471,
              "lon": 9.393638,
              "distance_from_previous_km": 36.794
            },
            {
              "station_name": "MANDELLO DEL LARIO",
              "station_order": 4,
              "lat": 45.915208,
              "lon": 9.322061,
              "distance_from_previous_km": 2.82
            },
            {
              "station_name": "MANDELLO DEL LARIO",
              "station_order": 4,
              "lat": 45.915208,
              "lon": 9.322061,
              "distance_from_previous_km": 9.441
            },
            {
              "station_name": "MANDELLO DEL LARIO",
              "station_order": 4,
              "lat": 45.915208,
              "lon": 9.322061,
              "distance_from_previous_km": 9.441
            },
            {
              "station_name": "VARENNA ESINO",
              "station_order": 5,
              "lat": 46.015,
              "lon": 9.286405,
              "distance_from_previous_km": 4.74
            },
            {
              "station_name": "VARENNA ESINO",
              "station_order": 5,
              "lat": 46.015,
              "lon": 9.286405,
              "distance_from_previous_km": 12.148
            },
            {
              "station_name": "VARENNA ESINO",
              "station_order": 5,
              "lat": 46.015,
              "lon": 9.286405,
              "distance_from_previous_km": 12.148
            },
            {
              "station_name": "BELLANO TARTAVELLE TERME",
              "station_order": 6,
              "lat": 46.039448,
              "lon": 9.302776,
              "distance_from_previous_km": 1.37
            },
            {
              "station_name": "BELLANO TARTAVELLE TERME",
              "station_order": 6,
              "lat": 46.039448,
              "lon": 9.302776,
              "distance_from_previous_km": 3.258
            },
            {
              "station_name": "BELLANO TARTAVELLE TERME",
              "station_order": 6,
              "lat": 46.039448,
              "lon": 9.302776,
              "distance_from_previous_km": 3.258
            },
            {
              "station_name": "COLICO",
              "station_order": 7,
              "lat": 46.138019,
              "lon": 9.375222,
              "distance_from_previous_km": 1.91
            },
            {
              "station_name": "COLICO",
              "station_order": 7,
              "lat": 46.138019,
              "lon": 9.375222,
              "distance_from_previous_km": 14.132
            },
            {
              "station_name": "COLICO",
              "station_order": 7,
              "lat": 46.138019,
              "lon": 9.375222,
              "distance_from_previous_km": 14.132
            },
            {
              "station_name": "MORBEGNO",
              "station_order": 8,
              "lat": 46.136663,
              "lon": 9.568646,
              "distance_from_previous_km": 15.395
            },
            {
              "station_name": "MORBEGNO",
              "station_order": 8,
              "lat": 46.136663,
              "lon": 9.568646,
              "distance_from_previous_km": 15.395
            },
            {
              "station_name": "SONDRIO",
              "station_order": 9,
              "lat": 46.167064,
              "lon": 9.872928,
              "distance_from_previous_km": 25.07
            },
            {
              "station_name": "SONDRIO",
              "station_order": 9,
              "lat": 46.167064,
              "lon": 9.872928,
              "distance_from_previous_km": 25.07
            },
            {
              "station_name": "TRESENDA-APRICA-TEGLIO",
              "station_order": 10,
              "lat": 46.162082,
              "lon": 10.083754,
              "distance_from_previous_km": 16.889
            },
            {
              "station_name": "TIRANO",
              "station_order": 11,
              "lat": 46.21539,
              "lon": 10.166961,
              "distance_from_previous_km": 9.068
            }
          ],
          "current_stop_index": 1
        },
        {
          "train_id": "REG_33132",
          "train_type": "regional",
          "current_station": null,
          "next_station": "COLICO",
          "current_edge": "MILANO CENTRALE--RHO FIERA MILANO",
          "position_km": 3.7333333333333343,
          "speed_kmh": 20,
          "delay_sec": 60,
          "status": "en_route",
          "lat": 46.138019,
          "lon": 9.375222,
          "route": [
            {
              "station_name": "COLICO",
              "station_order": 1,
              "lat": 46.138019,
              "lon": 9.375222,
              "distance_from_previous_km": 2.09
            },
            {
              "station_name": "COLICO",
              "station_order": 1,
              "lat": 46.138019,
              "lon": 9.375222,
              "distance_from_previous_km": 0.0
            },
            {
              "station_name": "MORBEGNO",
              "station_order": 2,
              "lat": 46.136663,
              "lon": 9.568646,
              "distance_from_previous_km": 2.6
            },
            {
              "station_name": "MORBEGNO",
              "station_order": 2,
              "lat": 46.136663,
              "lon": 9.568646,
              "distance_from_previous_km": 15.395
            },
            {
              "station_name": "SONDRIO",
              "station_order": 3,
              "lat": 46.167064,
              "lon": 9.872928,
              "distance_from_previous_km": 1.93
            },
            {
              "station_name": "ARDENNO MASINO",
              "station_order": 3,
              "lat": 46.16198,
              "lon": 9.651374,
              "distance_from_previous_km": 7.547
            },
            {
              "station_name": "TIRANO",
              "station_order": 4,
              "lat": 46.21539,
              "lon": 10.166961,
              "distance_from_previous_km": 0.9
            },
            {
              "station_name": "SONDRIO",
              "station_order": 4,
              "lat": 46.167064,
              "lon": 9.872928,
              "distance_from_previous_km": 17.523
            },
            {
              "station_name": "TIRANO",
              "station_order": 5,
              "lat": 46.21539,
              "lon": 10.166961,
              "distance_from_previous_km": 25.957
            }
          ],
          "current_stop_index": 0
        }
      ],
      "network_context": {},
      "status": "unresolved"
    },
    {
      "metadata": {
        "conflict_id": "11a41e36-bb5b-4408-971f-e1118fec053e",
        "timestamp": "2026-01-29T17:49:11.921076",
        "tick_number": 24,
        "simulation_time": "2026-01-29T06:24:00.170601"
      },
      "conflict": {
        "type": "edge_capacity_overflow",
        "severity": "medium",
        "probability": 1.0,
        "location": "MILANO CENTRALE--RHO FIERA MILANO",
        "location_type": "edge",
        "explanation": "üö® EDGE OVERLOAD at MILANO CENTRALE--RHO FIERA MILANO | Trains involved: REG_2014, FR_9700, REG_2816 (+1 more) | Edge MILANO CENTRALE--RHO FIERA MILANO has 4 trains but capacity is 3. Overflow ratio: 1.3x",
        "resolution_suggestions": [
          "Hold trains at previous station",
          "Reroute via alternative track",
          "Reduce speed to create spacing"
        ]
      },
      "affected_trains": [
        {
          "train_id": "REG_2014",
          "train_type": "regional",
          "current_station": null,
          "next_station": "RHO FIERA MILANO",
          "current_edge": "MILANO CENTRALE--RHO FIERA MILANO",
          "position_km": 6.666666666666668,
          "speed_kmh": 80,
          "delay_sec": 41,
          "status": "en_route",
          "lat": 45.509907067681894,
          "lon": 9.12606234856176,
          "route": [
            {
              "station_name": "MILANO CENTRALE",
              "station_order": 1,
              "lat": 45.486347,
              "lon": 9.204528,
              "distance_from_previous_km": 0.0
            },
            {
              "station_name": "RHO FIERA MILANO",
              "station_order": 2,
              "lat": 45.521157,
              "lon": 9.088595,
              "distance_from_previous_km": 9.85
            },
            {
              "station_name": "MAGENTA",
              "station_order": 3,
              "lat": 45.468204,
              "lon": 8.880633,
              "distance_from_previous_km": 17.29
            }
          ],
          "current_stop_index": 0
        },
        {
          "train_id": "FR_9700",
          "train_type": "high_speed",
          "current_station": null,
          "next_station": "DESENZANO",
          "current_edge": "MILANO CENTRALE--RHO FIERA MILANO",
          "position_km": 2.4666666666666672,
          "speed_kmh": 20,
          "delay_sec": 94,
          "status": "en_route",
          "lat": 45.484491119516846,
          "lon": 9.308949229073956,
          "route": [
            {
              "station_name": "MILANO CENTRALE",
              "station_order": 4,
              "lat": 45.486347,
              "lon": 9.204528,
              "distance_from_previous_km": 209.48
            },
            {
              "station_name": "DESENZANO",
              "station_order": 7,
              "lat": 45.462677,
              "lon": 10.536322,
              "distance_from_previous_km": 31.46
            },
            {
              "station_name": "BRESCIA",
              "station_order": 8,
              "lat": 45.532315,
              "lon": 10.212828,
              "distance_from_previous_km": 4.33
            },
            {
              "station_name": "MILANO CENTRALE",
              "station_order": 9,
              "lat": 45.486347,
              "lon": 9.204528,
              "distance_from_previous_km": 12.46
            }
          ],
          "current_stop_index": 0
        },
        {
          "train_id": "REG_2816",
          "train_type": "regional",
          "current_station": null,
          "next_station": "MILANO CENTRALE",
          "current_edge": "MILANO CENTRALE--RHO FIERA MILANO",
          "position_km": 3.2666666666666675,
          "speed_kmh": 20,
          "delay_sec": 92,
          "status": "en_route",
          "lat": 45.486347,
          "lon": 9.204528,
          "route": [
            {
              "station_name": "MILANO CENTRALE",
              "station_order": 1,
              "lat": 45.486347,
              "lon": 9.204528,
              "distance_from_previous_km": 6.05
            },
            {
              "station_name": "MILANO CENTRALE",
              "station_order": 1,
              "lat": 45.486347,
              "lon": 9.204528,
              "distance_from_previous_km": 3.06
            },
            {
              "station_name": "MILANO CENTRALE",
              "station_order": 1,
              "lat": 45.486347,
              "lon": 9.204528,
              "distance_from_previous_km": 0.0
            },
            {
              "station_name": "MILANO CENTRALE",
              "station_order": 1,
              "lat": 45.486347,
              "lon": 9.204528,
              "distance_from_previous_km": 0.0
            },
            {
              "station_name": "MONZA",
              "station_order": 2,
              "lat": 45.577789,
              "lon": 9.273253,
              "distance_from_previous_km": 3.33
            },
            {
              "station_name": "MONZA",
              "station_order": 2,
              "lat": 45.577789,
              "lon": 9.273253,
              "distance_from_previous_km": 2.45
            },
            {
              "station_name": "MONZA",
              "station_order": 2,
              "lat": 45.577789,
              "lon": 9.273253,
              "distance_from_previous_km": 11.934
            },
            {
              "station_name": "MONZA",
              "station_order": 2,
              "lat": 45.577789,
              "lon": 9.273253,
              "distance_from_previous_km": 11.934
            },
            {
              "station_name": "LECCO",
              "station_order": 3,
              "lat": 45.856471,
              "lon": 9.393638,
              "distance_from_previous_km": 3.03
            },
            {
              "station_name": "LECCO",
              "station_order": 3,
              "lat": 45.856471,
              "lon": 9.393638,
              "distance_from_previous_km": 3.28
            },
            {
              "station_name": "LECCO",
              "station_order": 3,
              "lat": 45.856471,
              "lon": 9.393638,
              "distance_from_previous_km": 36.794
            },
            {
              "station_name": "LECCO",
              "station_order": 3,
              "lat": 45.856471,
              "lon": 9.393638,
              "distance_from_previous_km": 36.794
            },
            {
              "station_name": "MANDELLO DEL LARIO",
              "station_order": 4,
              "lat": 45.915208,
              "lon": 9.322061,
              "distance_from_previous_km": 2.82
            },
            {
              "station_name": "MANDELLO DEL LARIO",
              "station_order": 4,
              "lat": 45.915208,
              "lon": 9.322061,
              "distance_from_previous_km": 9.441
            },
            {
              "station_name": "MANDELLO DEL LARIO",
              "station_order": 4,
              "lat": 45.915208,
              "lon": 9.322061,
              "distance_from_previous_km": 9.441
            },
            {
              "station_name": "VARENNA ESINO",
              "station_order": 5,
              "lat": 46.015,
              "lon": 9.286405,
              "distance_from_previous_km": 4.74
            },
            {
              "station_name": "VARENNA ESINO",
              "station_order": 5,
              "lat": 46.015,
              "lon": 9.286405,
              "distance_from_previous_km": 12.148
            },
            {
              "station_name": "VARENNA ESINO",
              "station_order": 5,
              "lat": 46.015,
              "lon": 9.286405,
              "distance_from_previous_km": 12.148
            },
            {
              "station_name": "BELLANO TARTAVELLE TERME",
              "station_order": 6,
              "lat": 46.039448,
              "lon": 9.302776,
              "distance_from_previous_km": 1.37
            },
            {
              "station_name": "BELLANO TARTAVELLE TERME",
              "station_order": 6,
              "lat": 46.039448,
              "lon": 9.302776,
              "distance_from_previous_km": 3.258
            },
            {
              "station_name": "BELLANO TARTAVELLE TERME",
              "station_order": 6,
              "lat": 46.039448,
              "lon": 9.302776,
              "distance_from_previous_km": 3.258
            },
            {
              "station_name": "COLICO",
              "station_order": 7,
              "lat": 46.138019,
              "lon": 9.375222,
              "distance_from_previous_km": 1.91
            },
            {
              "station_name": "COLICO",
              "station_order": 7,
              "lat": 46.138019,
              "lon": 9.375222,
              "distance_from_previous_km": 14.132
            },
            {
              "station_name": "COLICO",
              "station_order": 7,
              "lat": 46.138019,
              "lon": 9.375222,
              "distance_from_previous_km": 14.132
            },
            {
              "station_name": "MORBEGNO",
              "station_order": 8,
              "lat": 46.136663,
              "lon": 9.568646,
              "distance_from_previous_km": 15.395
            },
            {
              "station_name": "MORBEGNO",
              "station_order": 8,
              "lat": 46.136663,
              "lon": 9.568646,
              "distance_from_previous_km": 15.395
            },
            {
              "station_name": "SONDRIO",
              "station_order": 9,
              "lat": 46.167064,
              "lon": 9.872928,
              "distance_from_previous_km": 25.07
            },
            {
              "station_name": "SONDRIO",
              "station_order": 9,
              "lat": 46.167064,
              "lon": 9.872928,
              "distance_from_previous_km": 25.07
            },
            {
              "station_name": "TRESENDA-APRICA-TEGLIO",
              "station_order": 10,
              "lat": 46.162082,
              "lon": 10.083754,
              "distance_from_previous_km": 16.889
            },
            {
              "station_name": "TIRANO",
              "station_order": 11,
              "lat": 46.21539,
              "lon": 10.166961,
              "distance_from_previous_km": 9.068
            }
          ],
          "current_stop_index": 1
        },
        {
          "train_id": "REG_33132",
          "train_type": "regional",
          "current_station": null,
          "next_station": "COLICO",
          "current_edge": "MILANO CENTRALE--RHO FIERA MILANO",
          "position_km": 4.066666666666667,
          "speed_kmh": 20,
          "delay_sec": 60,
          "status": "en_route",
          "lat": 46.138019,
          "lon": 9.375222,
          "route": [
            {
              "station_name": "COLICO",
              "station_order": 1,
              "lat": 46.138019,
              "lon": 9.375222,
              "distance_from_previous_km": 2.09
            },
            {
              "station_name": "COLICO",
              "station_order": 1,
              "lat": 46.138019,
              "lon": 9.375222,
              "distance_from_previous_km": 0.0
            },
            {
              "station_name": "MORBEGNO",
              "station_order": 2,
              "lat": 46.136663,
              "lon": 9.568646,
              "distance_from_previous_km": 2.6
            },
            {
              "station_name": "MORBEGNO",
              "station_order": 2,
              "lat": 46.136663,
              "lon": 9.568646,
              "distance_from_previous_km": 15.395
            },
            {
              "station_name": "SONDRIO",
              "station_order": 3,
              "lat": 46.167064,
              "lon": 9.872928,
              "distance_from_previous_km": 1.93
            },
            {
              "station_name": "ARDENNO MASINO",
              "station_order": 3,
              "lat": 46.16198,
              "lon": 9.651374,
              "distance_from_previous_km": 7.547
            },
            {
              "station_name": "TIRANO",
              "station_order": 4,
              "lat": 46.21539,
              "lon": 10.166961,
              "distance_from_previous_km": 0.9
            },
            {
              "station_name": "SONDRIO",
              "station_order": 4,
              "lat": 46.167064,
              "lon": 9.872928,
              "distance_from_previous_km": 17.523
            },
            {
              "station_name": "TIRANO",
              "station_order": 5,
              "lat": 46.21539,
              "lon": 10.166961,
              "distance_from_previous_km": 25.957
            }
          ],
          "current_stop_index": 0
        }
      ],
      "network_context": {},
      "status": "unresolved"
    },
    {
      "metadata": {
        "conflict_id": "65822c53-15f3-47ea-9106-f9664d9edf09",
        "timestamp": "2026-01-29T17:49:12.016732",
        "tick_number": 25,
        "simulation_time": "2026-01-29T06:25:00.170601"
      },
      "conflict": {
        "type": "edge_capacity_overflow",
        "severity": "medium",
        "probability": 1.0,
        "location": "MILANO CENTRALE--RHO FIERA MILANO",
        "location_type": "edge",
        "explanation": "üö® EDGE OVERLOAD at MILANO CENTRALE--RHO FIERA MILANO | Trains involved: REG_2014, FR_9700, REG_2816 (+1 more) | Edge MILANO CENTRALE--RHO FIERA MILANO has 4 trains but capacity is 3. Overflow ratio: 1.3x",
        "resolution_suggestions": [
          "Hold trains at previous station",
          "Reroute via alternative track",
          "Reduce speed to create spacing"
        ]
      },
      "affected_trains": [
        {
          "train_id": "REG_2014",
          "train_type": "regional",
          "current_station": null,
          "next_station": "RHO FIERA MILANO",
          "current_edge": "MILANO CENTRALE--RHO FIERA MILANO",
          "position_km": 8.000000000000002,
          "speed_kmh": 80,
          "delay_sec": 41,
          "status": "en_route",
          "lat": 45.51461908121828,
          "lon": 9.110369218274112,
          "route": [
            {
              "station_name": "MILANO CENTRALE",
              "station_order": 1,
              "lat": 45.486347,
              "lon": 9.204528,
              "distance_from_previous_km": 0.0
            },
            {
              "station_name": "RHO FIERA MILANO",
              "station_order": 2,
              "lat": 45.521157,
              "lon": 9.088595,
              "distance_from_previous_km": 9.85
            },
            {
              "station_name": "MAGENTA",
              "station_order": 3,
              "lat": 45.468204,
              "lon": 8.880633,
              "distance_from_previous_km": 17.29
            }
          ],
          "current_stop_index": 0
        },
        {
          "train_id": "FR_9700",
          "train_type": "high_speed",
          "current_station": null,
          "next_station": "DESENZANO",
          "current_edge": "MILANO CENTRALE--RHO FIERA MILANO",
          "position_km": 2.8000000000000007,
          "speed_kmh": 20,
          "delay_sec": 94,
          "status": "en_route",
          "lat": 45.48424032485696,
          "lon": 9.323060205975843,
          "route": [
            {
              "station_name": "MILANO CENTRALE",
              "station_order": 4,
              "lat": 45.486347,
              "lon": 9.204528,
              "distance_from_previous_km": 209.48
            },
            {
              "station_name": "DESENZANO",
              "station_order": 7,
              "lat": 45.462677,
              "lon": 10.536322,
              "distance_from_previous_km": 31.46
            },
            {
              "station_name": "BRESCIA",
              "station_order": 8,
              "lat": 45.532315,
              "lon": 10.212828,
              "distance_from_previous_km": 4.33
            },
            {
              "station_name": "MILANO CENTRALE",
              "station_order": 9,
              "lat": 45.486347,
              "lon": 9.204528,
              "distance_from_previous_km": 12.46
            }
          ],
          "current_stop_index": 0
        },
        {
          "train_id": "REG_2816",
          "train_type": "regional",
          "current_station": null,
          "next_station": "MILANO CENTRALE",
          "current_edge": "MILANO CENTRALE--RHO FIERA MILANO",
          "position_km": 3.600000000000001,
          "speed_kmh": 20,
          "delay_sec": 92,
          "status": "en_route",
          "lat": 45.486347,
          "lon": 9.204528,
          "route": [
            {
              "station_name": "MILANO CENTRALE",
              "station_order": 1,
              "lat": 45.486347,
              "lon": 9.204528,
              "distance_from_previous_km": 6.05
            },
            {
              "station_name": "MILANO CENTRALE",
              "station_order": 1,
              "lat": 45.486347,
              "lon": 9.204528,
              "distance_from_previous_km": 3.06
            },
            {
              "station_name": "MILANO CENTRALE",
              "station_order": 1,
              "lat": 45.486347,
              "lon": 9.204528,
              "distance_from_previous_km": 0.0
            },
            {
              "station_name": "MILANO CENTRALE",
              "station_order": 1,
              "lat": 45.486347,
              "lon": 9.204528,
              "distance_from_previous_km": 0.0
            },
            {
              "station_name": "MONZA",
              "station_order": 2,
              "lat": 45.577789,
              "lon": 9.273253,
              "distance_from_previous_km": 3.33
            },
            {
              "station_name": "MONZA",
              "station_order": 2,
              "lat": 45.577789,
              "lon": 9.273253,
              "distance_from_previous_km": 2.45
            },
            {
              "station_name": "MONZA",
              "station_order": 2,
              "lat": 45.577789,
              "lon": 9.273253,
              "distance_from_previous_km": 11.934
            },
            {
              "station_name": "MONZA",
              "station_order": 2,
              "lat": 45.577789,
              "lon": 9.273253,
              "distance_from_previous_km": 11.934
            },
            {
              "station_name": "LECCO",
              "station_order": 3,
              "lat": 45.856471,
              "lon": 9.393638,
              "distance_from_previous_km": 3.03
            },
            {
              "station_name": "LECCO",
              "station_order": 3,
              "lat": 45.856471,
              "lon": 9.393638,
              "distance_from_previous_km": 3.28
            },
            {
              "station_name": "LECCO",
              "station_order": 3,
              "lat": 45.856471,
              "lon": 9.393638,
              "distance_from_previous_km": 36.794
            },
            {
              "station_name": "LECCO",
              "station_order": 3,
              "lat": 45.856471,
              "lon": 9.393638,
              "distance_from_previous_km": 36.794
            },
            {
              "station_name": "MANDELLO DEL LARIO",
              "station_order": 4,
              "lat": 45.915208,
              "lon": 9.322061,
              "distance_from_previous_km": 2.82
            },
            {
              "station_name": "MANDELLO DEL LARIO",
              "station_order": 4,
              "lat": 45.915208,
              "lon": 9.322061,
              "distance_from_previous_km": 9.441
            },
            {
              "station_name": "MANDELLO DEL LARIO",
              "station_order": 4,
              "lat": 45.915208,
              "lon": 9.322061,
              "distance_from_previous_km": 9.441
            },
            {
              "station_name": "VARENNA ESINO",
              "station_order": 5,
              "lat": 46.015,
              "lon": 9.286405,
              "distance_from_previous_km": 4.74
            },
            {
              "station_name": "VARENNA ESINO",
              "station_order": 5,
              "lat": 46.015,
              "lon": 9.286405,
              "distance_from_previous_km": 12.148
            },
            {
              "station_name": "VARENNA ESINO",
              "station_order": 5,
              "lat": 46.015,
              "lon": 9.286405,
              "distance_from_previous_km": 12.148
            },
            {
              "station_name": "BELLANO TARTAVELLE TERME",
              "station_order": 6,
              "lat": 46.039448,
              "lon": 9.302776,
              "distance_from_previous_km": 1.37
            },
            {
              "station_name": "BELLANO TARTAVELLE TERME",
              "station_order": 6,
              "lat": 46.039448,
              "lon": 9.302776,
              "distance_from_previous_km": 3.258
            },
            {
              "station_name": "BELLANO TARTAVELLE TERME",
              "station_order": 6,
              "lat": 46.039448,
              "lon": 9.302776,
              "distance_from_previous_km": 3.258
            },
            {
              "station_name": "COLICO",
              "station_order": 7,
              "lat": 46.138019,
              "lon": 9.375222,
              "distance_from_previous_km": 1.91
            },
            {
              "station_name": "COLICO",
              "station_order": 7,
              "lat": 46.138019,
              "lon": 9.375222,
              "distance_from_previous_km": 14.132
            },
            {
              "station_name": "COLICO",
              "station_order": 7,
              "lat": 46.138019,
              "lon": 9.375222,
              "distance_from_previous_km": 14.132
            },
            {
              "station_name": "MORBEGNO",
              "station_order": 8,
              "lat": 46.136663,
              "lon": 9.568646,
              "distance_from_previous_km": 15.395
            },
            {
              "station_name": "MORBEGNO",
              "station_order": 8,
              "lat": 46.136663,
              "lon": 9.568646,
              "distance_from_previous_km": 15.395
            },
            {
              "station_name": "SONDRIO",
              "station_order": 9,
              "lat": 46.167064,
              "lon": 9.872928,
              "distance_from_previous_km": 25.07
            },
            {
              "station_name": "SONDRIO",
              "station_order": 9,
              "lat": 46.167064,
              "lon": 9.872928,
              "distance_from_previous_km": 25.07
            },
            {
              "station_name": "TRESENDA-APRICA-TEGLIO",
              "station_order": 10,
              "lat": 46.162082,
              "lon": 10.083754,
              "distance_from_previous_km": 16.889
            },
            {
              "station_name": "TIRANO",
              "station_order": 11,
              "lat": 46.21539,
              "lon": 10.166961,
              "distance_from_previous_km": 9.068
            }
          ],
          "current_stop_index": 1
        },
        {
          "train_id": "REG_33132",
          "train_type": "regional",
          "current_station": null,
          "next_station": "COLICO",
          "current_edge": "MILANO CENTRALE--RHO FIERA MILANO",
          "position_km": 4.4,
          "speed_kmh": 20,
          "delay_sec": 60,
          "status": "en_route",
          "lat": 46.138019,
          "lon": 9.375222,
          "route": [
            {
              "station_name": "COLICO",
              "station_order": 1,
              "lat": 46.138019,
              "lon": 9.375222,
              "distance_from_previous_km": 2.09
            },
            {
              "station_name": "COLICO",
              "station_order": 1,
              "lat": 46.138019,
              "lon": 9.375222,
              "distance_from_previous_km": 0.0
            },
            {
              "station_name": "MORBEGNO",
              "station_order": 2,
              "lat": 46.136663,
              "lon": 9.568646,
              "distance_from_previous_km": 2.6
            },
            {
              "station_name": "MORBEGNO",
              "station_order": 2,
              "lat": 46.136663,
              "lon": 9.568646,
              "distance_from_previous_km": 15.395
            },
            {
              "station_name": "SONDRIO",
              "station_order": 3,
              "lat": 46.167064,
              "lon": 9.872928,
              "distance_from_previous_km": 1.93
            },
            {
              "station_name": "ARDENNO MASINO",
              "station_order": 3,
              "lat": 46.16198,
              "lon": 9.651374,
              "distance_from_previous_km": 7.547
            },
            {
              "station_name": "TIRANO",
              "station_order": 4,
              "lat": 46.21539,
              "lon": 10.166961,
              "distance_from_previous_km": 0.9
            },
            {
              "station_name": "SONDRIO",
              "station_order": 4,
              "lat": 46.167064,
              "lon": 9.872928,
              "distance_from_previous_km": 17.523
            },
            {
              "station_name": "TIRANO",
              "station_order": 5,
              "lat": 46.21539,
              "lon": 10.166961,
              "distance_from_previous_km": 25.957
            }
          ],
          "current_stop_index": 0
        }
      ],
      "network_context": {},
      "status": "unresolved"
    },
    {
      "metadata": {
        "conflict_id": "d0bd2276-6911-424e-b489-fc227ac5a3af",
        "timestamp": "2026-01-29T17:49:12.114631",
        "tick_number": 26,
        "simulation_time": "2026-01-29T06:26:00.170601"
      },
      "conflict": {
        "type": "edge_capacity_overflow",
        "severity": "medium",
        "probability": 1.0,
        "location": "MILANO CENTRALE--RHO FIERA MILANO",
        "location_type": "edge",
        "explanation": "üö® EDGE OVERLOAD at MILANO CENTRALE--RHO FIERA MILANO | Trains involved: REG_2014, FR_9700, REG_2816 (+1 more) | Edge MILANO CENTRALE--RHO FIERA MILANO has 4 trains but capacity is 3. Overflow ratio: 1.3x",
        "resolution_suggestions": [
          "Hold trains at previous station",
          "Reroute via alternative track",
          "Reduce speed to create spacing"
        ]
      },
      "affected_trains": [
        {
          "train_id": "REG_2014",
          "train_type": "regional",
          "current_station": null,
          "next_station": "RHO FIERA MILANO",
          "current_edge": "MILANO CENTRALE--RHO FIERA MILANO",
          "position_km": 9.333333333333336,
          "speed_kmh": 80,
          "delay_sec": 41,
          "status": "en_route",
          "lat": 45.519331094754655,
          "lon": 9.094676087986464,
          "route": [
            {
              "station_name": "MILANO CENTRALE",
              "station_order": 1,
              "lat": 45.486347,
              "lon": 9.204528,
              "distance_from_previous_km": 0.0
            },
            {
              "station_name": "RHO FIERA MILANO",
              "station_order": 2,
              "lat": 45.521157,
              "lon": 9.088595,
              "distance_from_previous_km": 9.85
            },
            {
              "station_name": "MAGENTA",
              "station_order": 3,
              "lat": 45.468204,
              "lon": 8.880633,
              "distance_from_previous_km": 17.29
            }
          ],
          "current_stop_index": 0
        },
        {
          "train_id": "FR_9700",
          "train_type": "high_speed",
          "current_station": null,
          "next_station": "DESENZANO",
          "current_edge": "MILANO CENTRALE--RHO FIERA MILANO",
          "position_km": 3.133333333333334,
          "speed_kmh": 20,
          "delay_sec": 94,
          "status": "en_route",
          "lat": 45.48398953019708,
          "lon": 9.337171182877729,
          "route": [
            {
              "station_name": "MILANO CENTRALE",
              "station_order": 4,
              "lat": 45.486347,
              "lon": 9.204528,
              "distance_from_previous_km": 209.48
            },
            {
              "station_name": "DESENZANO",
              "station_order": 7,
              "lat": 45.462677,
              "lon": 10.536322,
              "distance_from_previous_km": 31.46
            },
            {
              "station_name": "BRESCIA",
              "station_order": 8,
              "lat": 45.532315,
              "lon": 10.212828,
              "distance_from_previous_km": 4.33
            },
            {
              "station_name": "MILANO CENTRALE",
              "station_order": 9,
              "lat": 45.486347,
              "lon": 9.204528,
              "distance_from_previous_km": 12.46
            }
          ],
          "current_stop_index": 0
        },
        {
          "train_id": "REG_2816",
          "train_type": "regional",
          "current_station": null,
          "next_station": "MILANO CENTRALE",
          "current_edge": "MILANO CENTRALE--RHO FIERA MILANO",
          "position_km": 3.9333333333333345,
          "speed_kmh": 20,
          "delay_sec": 227,
          "status": "delayed",
          "lat": 45.486347,
          "lon": 9.204528,
          "route": [
            {
              "station_name": "MILANO CENTRALE",
              "station_order": 1,
              "lat": 45.486347,
              "lon": 9.204528,
              "distance_from_previous_km": 6.05
            },
            {
              "station_name": "MILANO CENTRALE",
              "station_order": 1,
              "lat": 45.486347,
              "lon": 9.204528,
              "distance_from_previous_km": 3.06
            },
            {
              "station_name": "MILANO CENTRALE",
              "station_order": 1,
              "lat": 45.486347,
              "lon": 9.204528,
              "distance_from_previous_km": 0.0
            },
            {
              "station_name": "MILANO CENTRALE",
              "station_order": 1,
              "lat": 45.486347,
              "lon": 9.204528,
              "distance_from_previous_km": 0.0
            },
            {
              "station_name": "MONZA",
              "station_order": 2,
              "lat": 45.577789,
              "lon": 9.273253,
              "distance_from_previous_km": 3.33
            },
            {
              "station_name": "MONZA",
              "station_order": 2,
              "lat": 45.577789,
              "lon": 9.273253,
              "distance_from_previous_km": 2.45
            },
            {
              "station_name": "MONZA",
              "station_order": 2,
              "lat": 45.577789,
              "lon": 9.273253,
              "distance_from_previous_km": 11.934
            },
            {
              "station_name": "MONZA",
              "station_order": 2,
              "lat": 45.577789,
              "lon": 9.273253,
              "distance_from_previous_km": 11.934
            },
            {
              "station_name": "LECCO",
              "station_order": 3,
              "lat": 45.856471,
              "lon": 9.393638,
              "distance_from_previous_km": 3.03
            },
            {
              "station_name": "LECCO",
              "station_order": 3,
              "lat": 45.856471,
              "lon": 9.393638,
              "distance_from_previous_km": 3.28
            },
            {
              "station_name": "LECCO",
              "station_order": 3,
              "lat": 45.856471,
              "lon": 9.393638,
              "distance_from_previous_km": 36.794
            },
            {
              "station_name": "LECCO",
              "station_order": 3,
              "lat": 45.856471,
              "lon": 9.393638,
              "distance_from_previous_km": 36.794
            },
            {
              "station_name": "MANDELLO DEL LARIO",
              "station_order": 4,
              "lat": 45.915208,
              "lon": 9.322061,
              "distance_from_previous_km": 2.82
            },
            {
              "station_name": "MANDELLO DEL LARIO",
              "station_order": 4,
              "lat": 45.915208,
              "lon": 9.322061,
              "distance_from_previous_km": 9.441
            },
            {
              "station_name": "MANDELLO DEL LARIO",
              "station_order": 4,
              "lat": 45.915208,
              "lon": 9.322061,
              "distance_from_previous_km": 9.441
            },
            {
              "station_name": "VARENNA ESINO",
              "station_order": 5,
              "lat": 46.015,
              "lon": 9.286405,
              "distance_from_previous_km": 4.74
            },
            {
              "station_name": "VARENNA ESINO",
              "station_order": 5,
              "lat": 46.015,
              "lon": 9.286405,
              "distance_from_previous_km": 12.148
            },
            {
              "station_name": "VARENNA ESINO",
              "station_order": 5,
              "lat": 46.015,
              "lon": 9.286405,
              "distance_from_previous_km": 12.148
            },
            {
              "station_name": "BELLANO TARTAVELLE TERME",
              "station_order": 6,
              "lat": 46.039448,
              "lon": 9.302776,
              "distance_from_previous_km": 1.37
            },
            {
              "station_name": "BELLANO TARTAVELLE TERME",
              "station_order": 6,
              "lat": 46.039448,
              "lon": 9.302776,
              "distance_from_previous_km": 3.258
            },
            {
              "station_name": "BELLANO TARTAVELLE TERME",
              "station_order": 6,
              "lat": 46.039448,
              "lon": 9.302776,
              "distance_from_previous_km": 3.258
            },
            {
              "station_name": "COLICO",
              "station_order": 7,
              "lat": 46.138019,
              "lon": 9.375222,
              "distance_from_previous_km": 1.91
            },
            {
              "station_name": "COLICO",
              "station_order": 7,
              "lat": 46.138019,
              "lon": 9.375222,
              "distance_from_previous_km": 14.132
            },
            {
              "station_name": "COLICO",
              "station_order": 7,
              "lat": 46.138019,
              "lon": 9.375222,
              "distance_from_previous_km": 14.132
            },
            {
              "station_name": "MORBEGNO",
              "station_order": 8,
              "lat": 46.136663,
              "lon": 9.568646,
              "distance_from_previous_km": 15.395
            },
            {
              "station_name": "MORBEGNO",
              "station_order": 8,
              "lat": 46.136663,
              "lon": 9.568646,
              "distance_from_previous_km": 15.395
            },
            {
              "station_name": "SONDRIO",
              "station_order": 9,
              "lat": 46.167064,
              "lon": 9.872928,
              "distance_from_previous_km": 25.07
            },
            {
              "station_name": "SONDRIO",
              "station_order": 9,
              "lat": 46.167064,
              "lon": 9.872928,
              "distance_from_previous_km": 25.07
            },
            {
              "station_name": "TRESENDA-APRICA-TEGLIO",
              "station_order": 10,
              "lat": 46.162082,
              "lon": 10.083754,
              "distance_from_previous_km": 16.889
            },
            {
              "station_name": "TIRANO",
              "station_order": 11,
              "lat": 46.21539,
              "lon": 10.166961,
              "distance_from_previous_km": 9.068
            }
          ],
          "current_stop_index": 1
        },
        {
          "train_id": "REG_33132",
          "train_type": "regional",
          "current_station": null,
          "next_station": "COLICO",
          "current_edge": "MILANO CENTRALE--RHO FIERA MILANO",
          "position_km": 4.733333333333333,
          "speed_kmh": 20,
          "delay_sec": 60,
          "status": "en_route",
          "lat": 46.138019,
          "lon": 9.375222,
          "route": [
            {
              "station_name": "COLICO",
              "station_order": 1,
              "lat": 46.138019,
              "lon": 9.375222,
              "distance_from_previous_km": 2.09
            },
            {
              "station_name": "COLICO",
              "station_order": 1,
              "lat": 46.138019,
              "lon": 9.375222,
              "distance_from_previous_km": 0.0
            },
            {
              "station_name": "MORBEGNO",
              "station_order": 2,
              "lat": 46.136663,
              "lon": 9.568646,
              "distance_from_previous_km": 2.6
            },
            {
              "station_name": "MORBEGNO",
              "station_order": 2,
              "lat": 46.136663,
              "lon": 9.568646,
              "distance_from_previous_km": 15.395
            },
            {
              "station_name": "SONDRIO",
              "station_order": 3,
              "lat": 46.167064,
              "lon": 9.872928,
              "distance_from_previous_km": 1.93
            },
            {
              "station_name": "ARDENNO MASINO",
              "station_order": 3,
              "lat": 46.16198,
              "lon": 9.651374,
              "distance_from_previous_km": 7.547
            },
            {
              "station_name": "TIRANO",
              "station_order": 4,
              "lat": 46.21539,
              "lon": 10.166961,
              "distance_from_previous_km": 0.9
            },
            {
              "station_name": "SONDRIO",
              "station_order": 4,
              "lat": 46.167064,
              "lon": 9.872928,
              "distance_from_previous_km": 17.523
            },
            {
              "station_name": "TIRANO",
              "station_order": 5,
              "lat": 46.21539,
              "lon": 10.166961,
              "distance_from_previous_km": 25.957
            }
          ],
          "current_stop_index": 0
        }
      ],
      "network_context": {},
      "status": "unresolved"
    },
    {
      "metadata": {
        "conflict_id": "TF-20260129174916",
        "timestamp": "2026-01-29T06:50:00.170601",
        "tick_number": 50,
        "simulation_time": "2026-01-29T06:50:00.170601"
      },
      "conflict": {
        "type": "track_fault",
        "severity": "critical",
        "probability": 0.86,
        "location": "MILANO LAMBRATE--TREVIGLIO",
        "location_type": "edge",
        "explanation": "üõ§Ô∏è DEFECTIVE TRACK detected by Vision AI | Edge: MILANO LAMBRATE--TREVIGLIO | Confidence: 86% | Track CLOSED for 45min repair",
        "resolution_suggestions": [
          "‚ö†Ô∏è Immediate track closure required",
          "Dispatch maintenance team to MILANO LAMBRATE--TREVIGLIO",
          "Estimated repair time: 45 minutes",
          "Reroute all trains via alternate path"
        ]
      },
      "affected_trains": [],
      "network_context": {},
      "status": "unresolved"
    },
    {
      "metadata": {
        "conflict_id": "29911028-0156-45bc-977e-b7f04124a465",
        "timestamp": "2026-01-29T17:50:12.081814",
        "tick_number": 29,
        "simulation_time": "2026-01-29T06:29:00.581961"
      },
      "conflict": {
        "type": "edge_capacity_overflow",
        "severity": "medium",
        "probability": 1.0,
        "location": "MILANO CENTRALE--MILANO CENTRALE",
        "location_type": "edge",
        "explanation": "üö® EDGE OVERLOAD at MILANO CENTRALE--MILANO CENTRALE | Trains involved: REG_2816, FR_9703, REG_25512 (+1 more) | Edge MILANO CENTRALE--MILANO CENTRALE has 4 trains but capacity is 3. Overflow ratio: 1.3x",
        "resolution_suggestions": [
          "Hold trains at previous station",
          "Reroute via alternative track",
          "Reduce speed to create spacing"
        ]
      },
      "affected_trains": [
        {
          "train_id": "REG_2816",
          "train_type": "regional",
          "current_station": null,
          "next_station": "MILANO CENTRALE",
          "current_edge": "MILANO CENTRALE--MILANO CENTRALE",
          "position_km": 10.66666666666667,
          "speed_kmh": 80,
          "delay_sec": 0,
          "status": "en_route",
          "lat": 45.486347,
          "lon": 9.204528,
          "route": [
            {
              "station_name": "MILANO CENTRALE",
              "station_order": 1,
              "lat": 45.486347,
              "lon": 9.204528,
              "distance_from_previous_km": 6.05
            },
            {
              "station_name": "MILANO CENTRALE",
              "station_order": 1,
              "lat": 45.486347,
              "lon": 9.204528,
              "distance_from_previous_km": 3.06
            },
            {
              "station_name": "MILANO CENTRALE",
              "station_order": 1,
              "lat": 45.486347,
              "lon": 9.204528,
              "distance_from_previous_km": 0.0
            },
            {
              "station_name": "MILANO CENTRALE",
              "station_order": 1,
              "lat": 45.486347,
              "lon": 9.204528,
              "distance_from_previous_km": 0.0
            },
            {
              "station_name": "MONZA",
              "station_order": 2,
              "lat": 45.577789,
              "lon": 9.273253,
              "distance_from_previous_km": 3.33
            },
            {
              "station_name": "MONZA",
              "station_order": 2,
              "lat": 45.577789,
              "lon": 9.273253,
              "distance_from_previous_km": 2.45
            },
            {
              "station_name": "MONZA",
              "station_order": 2,
              "lat": 45.577789,
              "lon": 9.273253,
              "distance_from_previous_km": 11.934
            },
            {
              "station_name": "MONZA",
              "station_order": 2,
              "lat": 45.577789,
              "lon": 9.273253,
              "distance_from_previous_km": 11.934
            },
            {
              "station_name": "LECCO",
              "station_order": 3,
              "lat": 45.856471,
              "lon": 9.393638,
              "distance_from_previous_km": 3.03
            },
            {
              "station_name": "LECCO",
              "station_order": 3,
              "lat": 45.856471,
              "lon": 9.393638,
              "distance_from_previous_km": 3.28
            },
            {
              "station_name": "LECCO",
              "station_order": 3,
              "lat": 45.856471,
              "lon": 9.393638,
              "distance_from_previous_km": 36.794
            },
            {
              "station_name": "LECCO",
              "station_order": 3,
              "lat": 45.856471,
              "lon": 9.393638,
              "distance_from_previous_km": 36.794
            },
            {
              "station_name": "MANDELLO DEL LARIO",
              "station_order": 4,
              "lat": 45.915208,
              "lon": 9.322061,
              "distance_from_previous_km": 2.82
            },
            {
              "station_name": "MANDELLO DEL LARIO",
              "station_order": 4,
              "lat": 45.915208,
              "lon": 9.322061,
              "distance_from_previous_km": 9.441
            },
            {
              "station_name": "MANDELLO DEL LARIO",
              "station_order": 4,
              "lat": 45.915208,
              "lon": 9.322061,
              "distance_from_previous_km": 9.441
            },
            {
              "station_name": "VARENNA ESINO",
              "station_order": 5,
              "lat": 46.015,
              "lon": 9.286405,
              "distance_from_previous_km": 4.74
            },
            {
              "station_name": "VARENNA ESINO",
              "station_order": 5,
              "lat": 46.015,
              "lon": 9.286405,
              "distance_from_previous_km": 12.148
            },
            {
              "station_name": "VARENNA ESINO",
              "station_order": 5,
              "lat": 46.015,
              "lon": 9.286405,
              "distance_from_previous_km": 12.148
            },
            {
              "station_name": "BELLANO TARTAVELLE TERME",
              "station_order": 6,
              "lat": 46.039448,
              "lon": 9.302776,
              "distance_from_previous_km": 1.37
            },
            {
              "station_name": "BELLANO TARTAVELLE TERME",
              "station_order": 6,
              "lat": 46.039448,
              "lon": 9.302776,
              "distance_from_previous_km": 3.258
            },
            {
              "station_name": "BELLANO TARTAVELLE TERME",
              "station_order": 6,
              "lat": 46.039448,
              "lon": 9.302776,
              "distance_from_previous_km": 3.258
            },
            {
              "station_name": "COLICO",
              "station_order": 7,
              "lat": 46.138019,
              "lon": 9.375222,
              "distance_from_previous_km": 1.91
            },
            {
              "station_name": "COLICO",
              "station_order": 7,
              "lat": 46.138019,
              "lon": 9.375222,
              "distance_from_previous_km": 14.132
            },
            {
              "station_name": "COLICO",
              "station_order": 7,
              "lat": 46.138019,
              "lon": 9.375222,
              "distance_from_previous_km": 14.132
            },
            {
              "station_name": "MORBEGNO",
              "station_order": 8,
              "lat": 46.136663,
              "lon": 9.568646,
              "distance_from_previous_km": 15.395
            },
            {
              "station_name": "MORBEGNO",
              "station_order": 8,
              "lat": 46.136663,
              "lon": 9.568646,
              "distance_from_previous_km": 15.395
            },
            {
              "station_name": "SONDRIO",
              "station_order": 9,
              "lat": 46.167064,
              "lon": 9.872928,
              "distance_from_previous_km": 25.07
            },
            {
              "station_name": "SONDRIO",
              "station_order": 9,
              "lat": 46.167064,
              "lon": 9.872928,
              "distance_from_previous_km": 25.07
            },
            {
              "station_name": "TRESENDA-APRICA-TEGLIO",
              "station_order": 10,
              "lat": 46.162082,
              "lon": 10.083754,
              "distance_from_previous_km": 16.889
            },
            {
              "station_name": "TIRANO",
              "station_order": 11,
              "lat": 46.21539,
              "lon": 10.166961,
              "distance_from_previous_km": 9.068
            }
          ],
          "current_stop_index": 1
        },
        {
          "train_id": "FR_9703",
          "train_type": "high_speed",
          "current_station": null,
          "next_station": "MILANO CENTRALE",
          "current_edge": "MILANO CENTRALE--MILANO CENTRALE",
          "position_km": 0,
          "speed_kmh": 120,
          "delay_sec": 44,
          "status": "en_route",
          "lat": 45.486347,
          "lon": 9.204528,
          "route": [
            {
              "station_name": "MILANO CENTRALE",
              "station_order": 1,
              "lat": 45.486347,
              "lon": 9.204528,
              "distance_from_previous_km": 1.46
            },
            {
              "station_name": "MILANO CENTRALE",
              "station_order": 1,
              "lat": 45.486347,
              "lon": 9.204528,
              "distance_from_previous_km": 0.0
            },
            {
              "station_name": "BRESCIA",
              "station_order": 2,
              "lat": 45.532315,
              "lon": 10.212828,
              "distance_from_previous_km": 78.96
            },
            {
              "station_name": "DESENZANO",
              "station_order": 3,
              "lat": 45.462677,
              "lon": 10.536322,
              "distance_from_previous_km": 27.9
            }
          ],
          "current_stop_index": 0
        },
        {
          "train_id": "REG_25512",
          "train_type": "regional",
          "current_station": null,
          "next_station": "MILANO CENTRALE",
          "current_edge": "MILANO CENTRALE--MILANO CENTRALE",
          "position_km": 17.333333333333336,
          "speed_kmh": 80,
          "delay_sec": 0,
          "status": "en_route",
          "lat": 45.486347,
          "lon": 9.204528,
          "route": [
            {
              "station_name": "MILANO CENTRALE",
              "station_order": 1,
              "lat": 45.486347,
              "lon": 9.204528,
              "distance_from_previous_km": 8.67
            },
            {
              "station_name": "MILANO CENTRALE",
              "station_order": 1,
              "lat": 45.486347,
              "lon": 9.204528,
              "distance_from_previous_km": 0.0
            },
            {
              "station_name": "MONZA",
              "station_order": 2,
              "lat": 45.577789,
              "lon": 9.273253,
              "distance_from_previous_km": 8.84
            },
            {
              "station_name": "MONZA",
              "station_order": 2,
              "lat": 45.577789,
              "lon": 9.273253,
              "distance_from_previous_km": 11.934
            },
            {
              "station_name": "SEREGNO",
              "station_order": 3,
              "lat": 45.64601,
              "lon": 9.20285,
              "distance_from_previous_km": 4.3
            },
            {
              "station_name": "SEREGNO",
              "station_order": 3,
              "lat": 45.64601,
              "lon": 9.20285,
              "distance_from_previous_km": 9.664
            },
            {
              "station_name": "CHIASSO",
              "station_order": 4,
              "lat": 45.830736,
              "lon": 9.03421,
              "distance_from_previous_km": 4.17
            },
            {
              "station_name": "COMO S. GIOVANNI",
              "station_order": 4,
              "lat": 45.808946,
              "lon": 9.072331,
              "distance_from_previous_km": 18.293
            },
            {
              "station_name": "CHIASSO",
              "station_order": 5,
              "lat": 45.830736,
              "lon": 9.03421,
              "distance_from_previous_km": 4.146
            }
          ],
          "current_stop_index": 0
        },
        {
          "train_id": "FR_9717",
          "train_type": "high_speed",
          "current_station": null,
          "next_station": "MILANO CENTRALE",
          "current_edge": "MILANO CENTRALE--MILANO CENTRALE",
          "position_km": 12.0,
          "speed_kmh": 120,
          "delay_sec": 108,
          "status": "en_route",
          "lat": 45.486347,
          "lon": 9.204528,
          "route": [
            {
              "station_name": "MILANO CENTRALE",
              "station_order": 1,
              "lat": 45.486347,
              "lon": 9.204528,
              "distance_from_previous_km": 4.3
            },
            {
              "station_name": "MILANO CENTRALE",
              "station_order": 1,
              "lat": 45.486347,
              "lon": 9.204528,
              "distance_from_previous_km": 0.0
            },
            {
              "station_name": "MILANO CENTRALE",
              "station_order": 1,
              "lat": 45.486347,
              "lon": 9.204528,
              "distance_from_previous_km": 0.0
            },
            {
              "station_name": "BRESCIA",
              "station_order": 2,
              "lat": 45.532315,
              "lon": 10.212828,
              "distance_from_previous_km": 78.96
            }
          ],
          "current_stop_index": 0
        }
      ],
      "network_context": {},
      "status": "unresolved"
    },
    {
      "metadata": {
        "conflict_id": "723c58f7-cd24-4f41-ba3f-f9fb75871c46",
        "timestamp": "2026-01-29T17:50:12.283877",
        "tick_number": 30,
        "simulation_time": "2026-01-29T06:30:00.581961"
      },
      "conflict": {
        "type": "edge_capacity_overflow",
        "severity": "medium",
        "probability": 1.0,
        "location": "MILANO CENTRALE--MILANO CENTRALE",
        "location_type": "edge",
        "explanation": "üö® EDGE OVERLOAD at MILANO CENTRALE--MILANO CENTRALE | Trains involved: REG_2816, FR_9703, REG_25512 (+1 more) | Edge MILANO CENTRALE--MILANO CENTRALE has 4 trains but capacity is 3. Overflow ratio: 1.3x",
        "resolution_suggestions": [
          "Hold trains at previous station",
          "Reroute via alternative track",
          "Reduce speed to create spacing"
        ]
      },
      "affected_trains": [
        {
          "train_id": "REG_2816",
          "train_type": "regional",
          "current_station": null,
          "next_station": "MILANO CENTRALE",
          "current_edge": "MILANO CENTRALE--MILANO CENTRALE",
          "position_km": 12.000000000000004,
          "speed_kmh": 80,
          "delay_sec": 0,
          "status": "en_route",
          "lat": 45.486347,
          "lon": 9.204528,
          "route": [
            {
              "station_name": "MILANO CENTRALE",
              "station_order": 1,
              "lat": 45.486347,
              "lon": 9.204528,
              "distance_from_previous_km": 6.05
            },
            {
              "station_name": "MILANO CENTRALE",
              "station_order": 1,
              "lat": 45.486347,
              "lon": 9.204528,
              "distance_from_previous_km": 3.06
            },
            {
              "station_name": "MILANO CENTRALE",
              "station_order": 1,
              "lat": 45.486347,
              "lon": 9.204528,
              "distance_from_previous_km": 0.0
            },
            {
              "station_name": "MILANO CENTRALE",
              "station_order": 1,
              "lat": 45.486347,
              "lon": 9.204528,
              "distance_from_previous_km": 0.0
            },
            {
              "station_name": "MONZA",
              "station_order": 2,
              "lat": 45.577789,
              "lon": 9.273253,
              "distance_from_previous_km": 3.33
            },
            {
              "station_name": "MONZA",
              "station_order": 2,
              "lat": 45.577789,
              "lon": 9.273253,
              "distance_from_previous_km": 2.45
            },
            {
              "station_name": "MONZA",
              "station_order": 2,
              "lat": 45.577789,
              "lon": 9.273253,
              "distance_from_previous_km": 11.934
            },
            {
              "station_name": "MONZA",
              "station_order": 2,
              "lat": 45.577789,
              "lon": 9.273253,
              "distance_from_previous_km": 11.934
            },
            {
              "station_name": "LECCO",
              "station_order": 3,
              "lat": 45.856471,
              "lon": 9.393638,
              "distance_from_previous_km": 3.03
            },
            {
              "station_name": "LECCO",
              "station_order": 3,
              "lat": 45.856471,
              "lon": 9.393638,
              "distance_from_previous_km": 3.28
            },
            {
              "station_name": "LECCO",
              "station_order": 3,
              "lat": 45.856471,
              "lon": 9.393638,
              "distance_from_previous_km": 36.794
            },
            {
              "station_name": "LECCO",
              "station_order": 3,
              "lat": 45.856471,
              "lon": 9.393638,
              "distance_from_previous_km": 36.794
            },
            {
              "station_name": "MANDELLO DEL LARIO",
              "station_order": 4,
              "lat": 45.915208,
              "lon": 9.322061,
              "distance_from_previous_km": 2.82
            },
            {
              "station_name": "MANDELLO DEL LARIO",
              "station_order": 4,
              "lat": 45.915208,
              "lon": 9.322061,
              "distance_from_previous_km": 9.441
            },
            {
              "station_name": "MANDELLO DEL LARIO",
              "station_order": 4,
              "lat": 45.915208,
              "lon": 9.322061,
              "distance_from_previous_km": 9.441
            },
            {
              "station_name": "VARENNA ESINO",
              "station_order": 5,
              "lat": 46.015,
              "lon": 9.286405,
              "distance_from_previous_km": 4.74
            },
            {
              "station_name": "VARENNA ESINO",
              "station_order": 5,
              "lat": 46.015,
              "lon": 9.286405,
              "distance_from_previous_km": 12.148
            },
            {
              "station_name": "VARENNA ESINO",
              "station_order": 5,
              "lat": 46.015,
              "lon": 9.286405,
              "distance_from_previous_km": 12.148
            },
            {
              "station_name": "BELLANO TARTAVELLE TERME",
              "station_order": 6,
              "lat": 46.039448,
              "lon": 9.302776,
              "distance_from_previous_km": 1.37
            },
            {
              "station_name": "BELLANO TARTAVELLE TERME",
              "station_order": 6,
              "lat": 46.039448,
              "lon": 9.302776,
              "distance_from_previous_km": 3.258
            },
            {
              "station_name": "BELLANO TARTAVELLE TERME",
              "station_order": 6,
              "lat": 46.039448,
              "lon": 9.302776,
              "distance_from_previous_km": 3.258
            },
            {
              "station_name": "COLICO",
              "station_order": 7,
              "lat": 46.138019,
              "lon": 9.375222,
              "distance_from_previous_km": 1.91
            },
            {
              "station_name": "COLICO",
              "station_order": 7,
              "lat": 46.138019,
              "lon": 9.375222,
              "distance_from_previous_km": 14.132
            },
            {
              "station_name": "COLICO",
              "station_order": 7,
              "lat": 46.138019,
              "lon": 9.375222,
              "distance_from_previous_km": 14.132
            },